     2.11           OBSERVATION DATA    G (GPS)             RINEX VERSION / TYPE
teqc  2019Feb25     Mike Craymer        20250320 02:05:01UTCPGM / RUN BY / DATE
Linux 2.4.21-27.ELsmp|Opteron|gcc -static|Linux 64|=+       COMMENT
   0.100      (antenna height)                              COMMENT
 +45.58501118 (latitude)                                    COMMENT
 -75.80732353 (longitude)                                   COMMENT
0236.051      (elevation)                                   COMMENT
BIT 2 OF LLI FLAGS DATA COLLECTED UNDER A/S CONDITION       COMMENT
CAGS (COGO code)                                            COMMENT
CAGS                                                        MARKER NAME
40147M001                                                   MARKER NUMBER
MRC                 NRCan/GSD                               OBSERVER / AGENCY
4931K62905          TRIMBLE NETR8       48.01               REC # / TYPE / VERS
4926353381          TRM59800.00     NONE                    ANT # / TYPE
  1096349.1598 -4335060.6685  4533255.2278                  APPROX POSITION XYZ
        0.1000        0.0000        0.0000                  ANTENNA: DELTA H/E/N
     1     1                                                WAVELENGTH FACT L1/2
     7    L1    L2    L5    C1    P2    S1    S2            # / TYPES OF OBSERV
    30.0000                                                 INTERVAL
    18                                                      LEAP SECONDS
This data is subject to the Open Government Licence -Canada COMMENT
http://open.canada.ca/en/open-government-licence-canada     COMMENT
 SNR is mapped to RINEX snr flag value [0-9]                COMMENT
  L1 & L2: min(max(int(snr_dBHz/6), 0), 9)                  COMMENT
  2025     3    19     0     0    0.0000000     GPS         TIME OF FIRST OBS
                                                            END OF HEADER
 25  3 19  0  0  0.0000000  0 11G29G05G20G13G11G15G25G07G18G06G30
 112409571.547 8  87591970.10047                  21390819.477    21390829.273
        48.300          46.300
 106481469.251 8  82972712.15348                  20262711.352    20262720.738
        52.200          52.800
 108929841.034 8  84880495.08346                  20728616.430    20728625.289
        49.900          41.600
 116964971.823 7  91141580.18644                  22257666.445    22257677.355
        44.700          28.900
 115515393.845 7  90012084.24245                  21981803.500    21981813.941
        47.900          35.800
 127052883.158 6  99002316.44445                  24177340.992    24177357.648
        39.700          30.700
 129085358.31414                                  24564132.281
        25.300
 134652891.912 5                                  25623607.141
        31.300
 132209902.313 5                                  25158705.398
        33.200
 128636280.011 6 100236235.58244                  24478637.563    24478651.992
        39.400          29.800
 134198510.44715                                  25537126.633
        30.300
 25  3 19  0  0 30.0000000  0 10G29G05G20G13G11G15G07G18G06G30
 112362223.509 7  87555075.60247                  21381809.148    21381819.473
        47.600          46.300
 106460316.181 8  82956229.24848                  20258686.063    20258695.391
        51.500          52.800
 108974746.504 8  84915486.35846                  20737162.203    20737170.359
        48.800          41.300
 116863878.838 7  91062806.58844                  22238428.984    22238440.422
        44.600          28.500
 115580639.908 7  90062925.30945                  21994219.477    21994229.742
        47.200          35.300
 126930740.484 6  98907140.70245                  24154099.172    24154114.129
        40.400          30.900
 134618992.47915 104898013.45152                  25617157.242    25617166.629
        32.900          15.600
 132114084.364 5                                  25140472.914
        33.700
 128726104.952 6 100306228.87645                  24495730.813    24495746.121
        39.000          30.400
 134131336.345 5 104517976.95653                  25524344.516    25524360.586
        32.300          19.000
 25  3 19  0  1  0.0000000  0 10G29G05G20G13G11G15G07G18G06G30
 112315408.121 8  87518596.15847                  21372900.461    21372910.199
        48.700          46.100
 106439601.856 8  82940088.24748                  20254744.344    20254753.672
        51.100          52.900
 109019945.692 8  84950706.51746                  20745763.305    20745771.520
        49.600          41.100
 116763093.715 7  90984272.87344                  22219249.805    22219262.004
        44.600          28.900
 115646147.048 7  90113969.80245                  22006684.859    22006695.652
        47.000          35.800
 126808652.178 6  98812007.32445                  24130866.086    24130880.867
        40.600          31.100
 134585459.659 5 104871884.13342                  25610777.125    25610785.105
        33.700          16.300
 132018250.485 5                                  25122233.195
        31.000
 128816038.102 6 100376306.50244                  24512844.555    24512859.863
        39.000          29.800
 134064342.226 5 104465773.85042                  25511596.391    25511611.699
        32.600          17.800
 25  3 19  0  1 30.0000000  0 10G29G05G20G13G11G15G07G18G06G30
 112269127.945 8  87482533.76147                  21364093.281    21364103.137
        49.200          46.300
 106419326.369 8  82924289.17748                  20250886.320    20250895.180
        51.800          53.000
 109065438.343 8  84986155.36046                  20754419.773    20754429.102
        49.300          40.900
 116662620.276 7  90905982.04645                  22200130.320    22200141.465
        44.800          30.100
 115711915.505 7  90165217.92745                  22019200.750    22019210.957
        47.200          35.700
 126686621.303 6  98716918.69745                  24107643.500    24107658.691
        40.700          30.200
 134552294.99915 104846041.52352                  25604463.281    25604473.957
        31.900          16.300
 131922402.129 5                                  25103993.906
        32.000
 128906079.714 6 100446468.65844                  24529978.219    24529994.523
        36.700          29.100
 133997531.629 5 104413713.69242                  25498880.367    25498898.254
        32.400          16.900
 25  3 19  0  2  0.0000000  0 10G29G05G20G13G11G15G07G18G06G30
 112223385.219 8  87446890.15647                  21355388.773    21355398.922
        48.800          46.600
 106399490.232 8  82908832.44548                  20247111.164    20247120.434
        52.400          52.900
 109111223.109 8  85021831.81246                  20763131.969    20763141.121
        49.600          41.300
 116562462.056 7  90827936.82144                  22181071.023    22181081.699
        44.800          28.500
 115777944.963 8  90216669.42845                  22031765.813    22031775.785
        48.300          35.400
 126564650.377 6  98621876.78645                  24084433.195    24084448.094
        39.700          30.900
 134519501.254 5 104820488.02142                  25598224.930    25598233.613
        32.600          16.300
 131826540.271 5                                  25085752.742
        32.400
 128996229.275 6 100516714.94444                  24547132.039    24547149.574
        36.700          28.600
 133930907.247 5 104361798.73042                  25486202.188    25486220.543
        31.900          16.900
 25  3 19  0  2 30.0000000  0 10G29G05G20G13G11G15G07G18G06G30
 112178181.522 8  87411666.57447                  21346787.125    21346796.863
        48.600          46.300
 106380092.467 8  82893717.29248                  20243420.227    20243429.203
        51.900          52.900
 109157298.637 8  85057734.84746                  20771899.859    20771908.719
        49.000          40.900
 116462622.256 7  90750139.72645                  22162072.047    22162082.664
        45.600          31.000
 115844234.848 7  90268323.85946                  22044379.992    22044390.375
        46.900          36.300
 126442742.038 6  98526883.63145                  24061233.859    24061249.227
        39.400          30.600
 134487079.657 5 104795224.54342                  25592054.805    25592063.957
        31.900          16.300
 131730665.427 5                                  25067507.969
        32.000
 129086486.133 6 100587044.82144                  24564309.711    24564324.785
        37.300          29.000
 133864471.745 5 104310030.95642                  25473561.094    25473578.629
        31.800          16.900
 25  3 19  0  3  0.0000000  0 10G29G05G20G13G11G15G07G18G06G30
 112133518.303 8  87376864.12247                  21338287.953    21338297.398
        48.800          47.000
 106361132.508 8  82878943.25048                  20239812.234    20239820.859
        52.700          53.000
 109203663.112 8  85093862.99646                  20780723.172    20780731.738
        49.700          41.600
 116363103.669 7  90672592.91944                  22143133.578    22143144.781
        45.800          29.300
 115910784.289 7  90320180.53646                  22057043.789    22057054.758
        47.700          36.200
 126320898.217 6  98431940.73145                  24038046.875    24038063.063
        39.400          30.000
 134455031.336 5 104770251.87942                  25585952.664    25585965.977
        30.800          16.900
 131634778.047 5                                  25049262.727
        33.800
 129176849.357 6 100657457.59744                  24581504.203    24581521.035
        37.700          28.100
 133798227.185 5 104258411.98142                  25460953.570    25460972.395
        31.500          17.400
 25  3 19  0  3 30.0000000  0 10G29G05G20G13G11G15G07G18G06G30
 112089398.237 8  87342484.88547                  21329891.789    21329901.820
        49.800          46.800
 106342610.292 8  82864510.31848                  20236287.375    20236296.234
        52.600          52.800
 109250315.908 8  85130215.79547                  20789600.969    20789609.711
        50.200          42.000
 116263909.658 7  90595299.01545                  22124259.063    22124268.859
        46.700          31.800
 115977593.400 8  90372239.56546                  22069757.430    22069767.578
        48.000          36.000
 126199121.824 6  98337050.36745                  24014874.133    24014889.676
        38.900          30.300
 134423358.262 5 104745571.61042                  25579929.578    25579939.023
        34.000          17.400
 131538879.452 5                                  25031015.289
        34.100
 129267318.915 6 100727953.25044                  24598719.523    24598736.824
        37.100          28.900
 133732177.12815 104206944.49452                  25448383.234    25448403.699
        30.500          16.900
 25  3 19  0  4  0.0000000  0 10G29G05G20G13G11G15G07G18G06G30
 112045822.426 8  87308529.74247                  21321599.695    21321609.434
        49.400          47.100
 106324525.303 8  82850418.12948                  20232846.094    20232855.129
        52.200          52.900
 109297255.131 8  85166791.79646                  20798533.203    20798541.770
        49.900          40.400
 116165042.885 7  90518260.10345                  22105444.453    22105455.129
        46.000          30.500
 116044661.051 7  90424500.02145                  22082520.172    22082530.789
        47.600          35.900
 126077415.027 6  98242214.22545                  23991713.852    23991729.453
        39.400          31.100
 134392061.799 5 104721184.82642                  25573973.703    25573982.445
        34.800          17.800
 131442969.728 5                                  25012760.766
        32.300
 129357893.499 6 100798530.73944                  24615957.836    24615973.438
        37.500          28.900
 133666323.33014 104155630.11852                  25435850.930    25435871.805
        29.400          17.400
 25  3 19  0  4 30.0000000  0 10G29G05G20G13G11G15G07G18G06G30
 112002793.011 8  87275000.35247                  21313411.672    21313420.941
        49.800          46.800
 106306877.603 8  82836666.71748                  20229487.391    20229496.660
        52.000          52.800
 109344479.832 8  85203590.25446                  20807519.766    20807528.801
        49.600          40.900
 116066507.207 7  90441479.19045                  22086693.508    22086704.359
        46.600          30.900
 116111987.094 8  90476961.84545                  22095331.461    22095342.547
        48.000          35.500
 125955780.580 6  98147434.47445                  23968567.609    23968582.508
        39.100          30.900
 134361143.287 6 104697092.59243                  25568089.695    25568098.848
        37.000          19.000
 131347050.105 5                                  24994507.625
        33.000
 129448572.999 5 100869189.97644                  24633211.273    24633229.453
        35.800          25.300
 133600669.11314 104104471.13252                  25423356.797    25423378.434
        29.600          16.300
 25  3 19  0  5  0.0000000  0 10G29G05G20G13G11G15G07G18G06G30
 111960312.281 8  87241898.51647                  21305327.563    21305337.359
        50.500          47.100
 106289666.808 8  82823255.75148                  20226212.469    20226221.680
        52.600          53.000
 109391989.252 8  85240610.58046                  20816560.336    20816568.668
        49.500          41.100
 115968305.856 7  90364958.78845                  22068006.367    22068017.160
        45.900          31.300
 116179571.509 7  90529624.99945                  22108192.539    22108203.684
        47.800          35.500
 125834221.373 6  98052713.34645                  23945435.086    23945450.688
        39.500          30.800
 134330605.033 5 104673296.61742                  25562275.719    25562286.980
        34.400          17.800
 131251121.652 4                                  24976251.633
        29.100
 129539357.233 5 100939930.84044                  24650487.297    24650504.422
        35.200          25.800
 133535217.40714 104053469.95952                  25410902.125    25410921.770
        29.600          14.800
 25  3 19  0  5 30.0000000  0 10G29G05G20G13G11G15G07G18G06G30
 111918382.323 8  87209225.84947                  21297348.633    21297358.195
        50.300          46.900
 106272892.366 8  82810184.76248                  20223020.906    20223029.766
        52.700          53.200
 109439782.113 8  85277851.80746                  20825654.984    20825663.961
        49.900          40.900
 115870442.226 7  90288701.55945                  22049384.617    22049394.648
        46.700          31.100
 116247413.912 7  90582489.17045                  22121102.719    22121113.570
        47.900          35.400
 125712740.308 6  97958053.08145                  23922318.453    23922333.703
        40.800          32.400
 134300448.936 5 104649798.44943                  25556538.766    25556548.035
        33.800          18.300
 131155185.50715                                  24957992.883
        30.300
 129630245.859 5 101010753.02143                  24667783.563    24667800.453
        35.700          23.600
 133469970.88415                                  25398489.906
        32.200
 25  3 19  0  6  0.0000000  0 10G29G05G20G13G11G15G07G18G06G30
 111877004.376 8  87176983.32947                  21289474.445    21289484.242
        49.300          46.600
 106256553.892 8  82797453.60348                  20219911.125    20219920.512
        52.100          53.000
 109487856.772 8  85315312.59946                  20834803.398    20834812.141
        49.800          40.700
 115772919.046 7  90212709.60945                  22030825.719    22030836.102
        46.300          31.900
 116315513.501 7  90635553.75245                  22134061.531    22134073.027
        47.800          35.000
 125591339.793 6  97863455.58845                  23899216.125    23899232.254
        39.500          32.700
 134270675.777 5 104626598.65842                  25550871.742    25550882.594
        33.700          17.800
 131059241.951 5                                  24939739.211
        33.100
 129721237.761 5 101081655.70343                  24685099.602    24685114.734
        34.800          23.600
 133404932.027 5                                  25386113.891
        32.000
 25  3 19  0  6 30.0000000  0 10G29G05G20G13G11G15G07G18G06G30
 111836180.221 8  87145172.34347                  21281705.625    21281715.656
        48.000          46.700
 106240651.126 8  82785061.89648                  20216884.977    20216894.012
        51.300          53.200
 109536212.366 8  85352992.28546                  20844004.422    20844013.984
        48.400          39.900
 115675739.691 7  90136985.57745                  22012332.672    22012343.172
        45.900          30.400
 116383869.912 7  90688818.43545                  22147069.453    22147080.129
        47.400          35.400
 125470021.654 6  97768922.28245                  23876130.211    23876145.461
        41.000          33.000
 134241287.483 5 104603698.68443                  25545281.664    25545290.875
        35.800          18.300
 130963291.937 5                                  24921481.289
        33.900
 129812332.569 5 101152638.54243                  24702434.383    24702450.102
        35.200          22.000
 133340103.66814                                  25373774.531
        29.900
 25  3 19  0  7  0.0000000  0 10G29G05G20G13G11G15G07G18G06G30
 111795911.452 8  87113794.12247                  21274043.008    21274052.863
        49.100          47.100
 106225183.157 8  82773008.89848                  20213941.555    20213950.355
        52.800          53.200
 109584847.369 8  85390889.71846                  20853260.086    20853268.945
        48.600          40.200
 115578906.686 7  90061531.43545                  21993906.039    21993915.895
        45.300          30.500
 116452482.257 8  90742282.57045                  22160126.688    22160136.895
        48.200          35.800
 125348788.248 7  97674454.99045                  23853058.977    23853075.047
        42.000          34.000
 134212285.233 6 104581099.53443                  25539761.641    25539771.555
        36.200          20.600
 130867335.970 5                                  24903222.359
        33.300
 129903529.289 5 101223700.80543                  24719788.734    24719804.102
        35.000          22.500
 133275488.09014                                  25361479.742
        29.400
 25  3 19  0  7 30.0000000  0  9G29G05G20G13G11G15G07G18G06
 111756199.790 8  87082850.00047                  21266486.016    21266495.930
        48.800          46.500
 106210149.721 8  82761294.52948                  20211081.164    20211089.965
        52.200          53.100
 109633760.546 8  85429003.89846                  20862567.945    20862576.746
        48.900          39.500
 115482423.652 7  89986349.97845                  21975545.922    21975556.422
        46.400          30.700
 116521350.159 7  90795945.82745                  22173231.563    22173241.652
        47.900          35.800
 125227642.628 6  97580056.10845                  23830005.828    23830021.137
        41.900          34.400
 134183670.643 5 104558802.48543                  25534313.758    25534325.605
        35.500          19.000
 130771374.97315                                  24884959.797
        32.200
 129994827.448 5 101294842.09843                  24737159.258    24737177.203
        33.000          22.200
 25  3 19  0  8  0.0000000  0  9G29G05G20G13G11G15G07G18G06
 111717048.020 8  87052342.16247                  21259035.984    21259045.371
        48.700          46.700
 106195551.280 8  82749919.18348                  20208303.094    20208311.777
        52.200          53.100
 109682951.384 8  85467334.48646                  20871928.266    20871936.715
        48.300          40.200
 115386294.491 7  89911444.28145                  21957253.563    21957263.418
        46.900          30.600
 116590474.113 8  90849808.59745                  22186385.586    22186395.617
        48.200          35.500
 125106588.262 7  97485728.33445                  23806970.625    23806984.996
        42.600          34.600
 134155445.926 6 104536809.31643                  25528946.359    25528954.398
        36.800          20.400
 130675410.62015                                  24866701.016
        32.500
 130086227.466 5 101366062.80543                  24754551.922    24754569.750
        32.800          22.200
 25  3 19  0  8 30.0000000  0  9G29G05G20G13G11G15G07G18G06
 111678456.566 7  87022270.95747                  21251692.086    21251701.414
        47.900          46.800
 106181386.252 8  82738881.56448                  20205607.344    20205615.910
        52.500          53.100
 109732417.385 8  85505879.43446                  20881341.734    20881350.242
        48.100          40.800
 115290521.071 7  89836815.77945                  21939027.266    21939037.531
        45.500          30.600
 116659852.416 7  90903869.56445                  22199587.523    22199597.848
        47.900          35.700
 124985626.411 6  97391472.62845                  23783951.797    23783966.930
        41.900          34.000
 134127611.405 6 104515120.01143                  25523648.773    25523658.043
        36.800          21.500
 130579442.80715                                  24848438.594
        32.900
 130177727.475 5 101437361.36043                  24771963.500    24771981.914
        31.200          21.100
 25  3 19  0  9  0.0000000  0  9G29G05G20G13G11G15G07G18G06
 111640427.604 8  86992638.05647                  21244455.367    21244464.637
        48.100          46.700
 106167654.679 8  82728181.68948                  20202994.188    20203002.813
        51.800          53.000
 109782157.824 8  85544638.29046                  20890806.977    20890815.367
        48.100          40.600
 115195107.191 7  89762467.43845                  21920870.805    21920880.602
        46.300          30.500
 116729485.059 8  90958128.71645                  22212837.906    22212848.523
        48.400          35.800
 124864760.073 7  97297291.36645                  23760951.547    23760965.742
        42.500          34.800
 134100169.059 6 104493736.43643                  25518427.891    25518436.457
        37.000          22.200
 130483472.70015                                  24830175.359
        33.200
 130269327.463 5 101508737.85643                  24789395.445    24789413.449
        33.200          21.800
 25  3 19  0  9 30.0000000  0  9G29G05G20G13G11G15G07G18G06
 111602962.734 8  86963444.70947                  21237325.656    21237335.629
        48.200          46.800
 106154355.605 8  82717818.72048                  20200463.320    20200472.414
        52.100          53.000
 109832171.491 8  85583610.06046                  20900324.328    20900333.188
        48.300          40.400
 115100055.960 7  89688401.68045                  21902783.219    21902793.016
        46.300          30.300
 116799371.377 8  91012585.53946                  22226136.977    22226146.949
        48.000          36.000
 124743991.735 7  97203186.46545                  23737969.875    23737984.129
        42.100          34.700
 134073120.381 6 104472659.54443                  25513278.852    25513289.352
        36.700          21.700
 130387501.021 5 101600682.37452                  24811912.531    24811925.609
        35.500          16.300
 130361026.532 5 101580191.57543                  24806845.242    24806862.777
        32.800          21.700
 25  3 19  0 10  0.0000000  0  9G29G05G20G13G11G15G07G18G06
 111566064.588 7  86934692.96547                  21230304.242    21230314.273
        47.600          47.100
 106141490.866 8  82707794.38748                  20198015.438    20198024.355
        52.200          53.200
 109882458.537 8  85622794.84146                  20909893.391    20909902.074
        48.400          40.200
 115005371.100 7  89614621.39845                  21884764.977    21884774.539
        46.400          30.200
 116869511.862 7  91067240.41145                  22239484.734    22239495.059
        47.600          35.900
 124623324.937 7  97109160.67745                  23715008.117    23715021.430
        42.700          34.400
 134046467.605 5 104451891.17743                  25508205.641    25508216.961
        35.900          20.900
 130291529.650 5 101525899.59542                  24793649.234    24793663.313
        35.800          16.900
 130452825.209 5 101651722.79043                  24824313.898    24824332.371
        33.400          22.500
 25  3 19  0 10 30.0000000  0  9G29G05G20G13G11G15G07G18G06
 111529733.836 8  86906383.34247                  21223390.875    21223400.906
        48.100          46.800
 106129057.356 8  82698106.13348                  20195649.383    20195658.535
        51.700          53.200
 109933015.626 8  85662190.04846                  20919513.859    20919522.953
        48.000          40.600
 114911054.654 7  89541128.17945                  21866817.930    21866827.141
        46.900          30.800
 116939904.962 7  91122092.12245                  22252879.867    22252890.367
        47.600          35.500
 124502761.308 7  97015215.27945                  23692065.000    23692079.313
        42.700          34.700
 134020211.322 5 104431431.67543                  25503208.305    25503221.559
        34.100          20.600
 130195558.451 6 101451116.91942                  24775385.852    24775400.223
        37.100          17.400
 130544721.909 6 101723330.44943                  24841803.055    24841819.535
        36.200          23.500
 25  3 19  0 11  0.0000000  0 10G29G05G20G13G11G15G07G18G06G30
 111493972.239 7  86878517.20547                  21216585.609    21216595.172
        47.900          46.900
 106117054.860 8  82688753.60948                  20193365.203    20193374.297
        51.700          53.100
 109983842.440 7  85701795.41146                  20929186.461    20929194.266
        47.500          40.100
 114817110.101 7  89467924.75445                  21848940.328    21848949.891
        46.400          30.400
 117010550.328 8  91177140.40745                  22266324.070    22266334.160
        48.800          35.200
 124382303.264 7  96921352.14945                  23669142.367    23669156.324
        42.600          34.900
 133994352.916 5 104411282.17943                  25498291.070    25498299.578
        34.900          19.900
 130099588.407 6 101376335.10843                  24757124.766    24757137.551
        37.500          18.600
 130636716.137 6 101795014.11344                  24859310.117    24859325.836
        37.400          26.900
 132766522.03315 103454498.84252                  25264633.297    25264645.496
        31.800          16.900
 25  3 19  0 11 30.0000000  0 10G29G05G20G13G11G15G07G18G06G30
 111458781.125 8  86851095.60447                  21209888.539    21209899.098
        49.300          47.000
 106105483.212 8  82679736.74948                  20191163.047    20191171.848
        51.200          53.200
 110034937.226 7  85741609.58146                  20938909.195    20938917.469
        47.500          40.200
 114723540.485 7  89395013.48145                  21831133.688    21831144.246
        45.200          30.400
 117081447.481 8  91232384.89045                  22279815.180    22279824.801
        48.800          35.300
 124261953.446 7  96827573.35745                  23646240.633    23646253.887
        42.300          34.500
 133968893.88315                                  25493442.273
        32.400
 130003620.377 6 101301554.81842                  24738862.453    24738875.590
        37.000          16.300
 130728807.256 6 101866773.27644                  24876834.703    24876851.242
        37.900          28.900
 132703944.48815 103405737.21652                  25252725.219    25252738.297
        32.400          17.800
 25  3 19  0 12  0.0000000  0 10G29G05G20G13G11G15G07G18G06G30
 111424162.917 8  86824120.41847                  21203301.703    21203310.680
        48.600          47.300
 106094343.000 8  82671056.15448                  20189043.250    20189051.992
        51.500          53.300
 110086299.871 8  85781632.45346                  20948683.180    20948691.922
        49.400          40.300
 114630349.485 7  89322397.23145                  21813400.195    21813410.520
        46.100          30.000
 117152596.595 8  91287825.70245                  22293354.156    22293364.422
        48.400          35.500
 124141715.220 7  96733881.50745                  23623359.836    23623372.855
        42.700          34.100
 133943836.16315 104371918.43252                  25488675.289    25488686.844
        32.400          17.800
 129907656.084 6 101226777.50742                  24720601.234    24720613.668
        36.200          15.600
 130820995.423 6 101938608.06144                  24894377.984    24894394.230
        37.900          28.600
 132641607.17014 103357162.80152                  25240859.188    25240877.484
        29.600          17.400
 25  3 19  0 12 30.0000000  0 10G29G05G20G13G11G15G07G18G06G30
 111390118.966 8  86797592.70747                  21196822.844    21196832.172
        48.100          46.900
 106083632.871 8  82662710.58748                  20187005.281    20187014.551
        52.000          53.300
 110137928.818 8  85821862.83446                  20958507.914    20958516.188
        49.200          40.600
 114537540.101 7  89250078.33745                  21795739.141    21795749.055
        46.300          30.200
 117223996.928 7  91343462.26945                  22306940.828    22306951.152
        47.800          34.200
 124021591.022 7  96640278.52945                  23600500.602    23600513.797
        42.200          34.200
 133919180.33015 104352706.00652                  25483983.695    25483995.191
        32.400          17.800
 129811696.132 6 101152003.60042                  24702340.063    24702352.496
        36.500          17.400
 130913279.734 6 102010517.74744                  24911938.773    24911955.957
        38.600          27.900
 132579512.595 5 103308777.48643                  25229044.305    25229062.367
        32.600          19.900
 25  3 19  0 13  0.0000000  0 10G29G05G20G13G11G15G07G18G06G30
 111356650.164 8  86771513.18347                  21190453.922    21190463.426
        49.100          47.200
 106073351.614 8  82654699.21248                  20185048.758    20185057.676
        51.500          53.500
 110189822.255 8  85862299.29746                  20968382.633    20968391.023
        49.500          39.700
 114445114.816 7  89178058.73745                  21778151.094    21778161.066
        46.400          30.900
 117295647.272 7  91399293.66545                  22320575.508    22320585.832
        47.000          34.900
 123901582.855 6  96546765.95745                  23577663.289    23577676.719
        41.600          34.200
 133894927.956 5 104333808.00243                  25479370.664    25479379.641
        35.400          19.900
 129715740.865 6 101077233.36542                  24684080.109    24684092.953
        37.400          16.900
 131005659.025 6 102082501.44544                  24929516.313    24929534.727
        37.100          27.700
 132517662.797 5 103260582.95343                  25217276.594    25217291.668
        34.300          21.700
 25  3 19  0 13 30.0000000  0 10G29G05G20G13G11G15G07G18G06G30
 111323758.359 8  86745883.26647                  21184195.273    21184204.777
        48.800          47.100
 106063499.476 8  82647022.21348                  20183173.656    20183182.867
        50.800          53.100
 110241979.110 8  85902941.02446                  20978307.594    20978315.867
        48.300          40.300
 114353076.722 7  89106340.86045                  21760636.828    21760646.391
        46.600          30.600
 117367547.206 7  91455319.52945                  22334258.039    22334268.480
        47.400          34.400
 123781693.234 7  96453345.75045                  23554849.328    23554862.699
        42.200          34.400
 133871080.583 5 104315225.66743                  25474831.164    25474842.426
        34.200          19.300
 129619791.255 6 101002467.47442                  24665822.164    24665834.188
        37.400          15.600
 131098132.740 6 102154558.74644                  24947114.461    24947131.762
        38.400          27.300
 132456060.507 6 103212581.21644                  25205554.453    25205569.996
        36.900          24.400
 25  3 19  0 14  0.0000000  0 10G29G05G20G13G11G15G07G18G06G30
 111291444.748 8  86720703.89547                  21178045.688    21178055.016
        48.500          47.000
 106054075.959 8  82639679.28448                  20181380.656    20181389.809
        51.400          53.400
 110294397.852 8  85943786.81646                  20988283.000    20988291.156
        49.400          39.900
 114261429.156 7  89034927.28645                  21743196.703    21743206.676
        47.000          31.100
 117439696.478 7  91511539.69045                  22347987.094    22347997.945
        46.700          34.100
 123661924.878 7  96360020.04645                  23532058.008    23532070.500
        42.000          34.000
 133847639.127 5 104296959.59143                  25470371.930    25470382.195
        34.400          19.000
 129523848.553 6 100927706.95242                  24647563.703    24647577.191
        36.800          16.300
 131190700.516 6 102226689.29844                  24964731.180    24964747.484
        40.100          28.600
 132394708.396 6 103164774.45944                  25193880.172    25193895.422
        38.300          24.900
 25  3 19  0 14 30.0000000  0 10G29G05G20G13G11G15G07G18G06G30
 111259711.455 8  86695976.71147                  21172006.820    21172016.910
        48.800          47.000
 106045080.589 8  82632670.03548                  20179668.734    20179677.711
        51.400          53.400
 110347078.213 8  85984836.45546                  20998307.742    20998315.547
        49.200          39.700
 114170175.486 7  88963820.63845                  21725831.594    21725841.391
        47.300          31.000
 117512094.885 7  91567953.98945                  22361763.789    22361775.227
        46.800          34.100
 123542280.750 7  96266791.13345                  23509289.328    23509303.051
        42.100          33.900
 133824605.669 5 104279011.50543                  25465988.359    25465998.918
        34.800          20.100
 129427913.901 6 100852952.74842                  24629307.648    24629320.492
        36.000          16.300
 131283362.084 6 102298892.98444                  24982362.383    24982380.270
        38.800          29.900
 132333609.612 6 103117165.13344                  25182253.695    25182269.297
        38.400          26.200
 25  3 19  0 15  0.0000000  0 10G29G05G20G13G11G15G07G18G06G30
 111228559.657 8  86671702.63347                  21166079.172    21166088.734
        49.200          46.700
 106036512.632 8  82625993.76648                  20178038.164    20178046.730
        51.700          53.400
 110400018.466 8  86026088.60646                  21008381.547    21008390.113
        49.600          39.000
 114079318.136 8  88893022.80845                  21708542.711    21708551.805
        48.400          32.100
 117584741.457 7  91624561.65645                  22375587.805    22375598.656
        46.100          33.700
 123422763.150 7  96173660.81645                  23486546.703    23486559.195
        42.900          34.300
 133801981.340 5 104261382.25443                  25461681.945    25461694.145
        33.600          19.600
 129331987.957 5 100778205.34442                  24611054.172    24611065.961
        35.700          16.300
 131376116.399 6 102371168.93244                  25000013.383    25000030.391
        38.600          28.300
 132272766.251 6 103069754.79843                  25170675.406    25170690.891
        37.300          23.500
 25  3 19  0 15 30.0000000  0 10G29G05G20G13G11G15G07G18G06G30
 111197991.310 8  86647883.16647                  21160261.664    21160271.344
        49.100          46.800
 106028371.772 8  82619650.27548                  20176489.086    20176497.828
        51.500          53.500
 110453217.854 8  86067542.67446                  21018505.047    21018513.086
        49.100          40.200
 113988860.872 7  88822536.74045                  21691329.250    21691338.402
        47.100          31.500
 117657636.226 7  91681362.72945                  22389459.438    22389470.465
        46.400          33.700
 123303375.227 7  96080631.55545                  23463826.578    23463840.656
        42.100          34.000
 133779767.220 5 104244072.63943                  25457451.453    25457466.117
        31.000          18.600
 129236072.126 5 100703465.84142                  24592801.453    24592813.652
        34.700          16.300
 131468963.457 6 102443517.16044                  25017682.656    25017698.668
        38.100          29.100
 132212181.502 6 103022545.97043                  25159143.516    25159160.934
        36.000          22.200
 25  3 19  0 16  0.0000000  0 10G29G05G20G13G11G15G07G18G06G30
 111168008.007 8  86624519.57347                  21154556.625    21154565.660
        49.500          46.800
 106020657.821 8  82613639.45048                  20175020.820    20175029.680
        51.900          53.400
 110506675.465 8  86109197.95046                  21028677.664    21028685.879
        49.400          38.900
 113898806.954 8  88752364.94945                  21674191.648    21674201.563
        48.200          32.700
 117730778.852 7  91738356.92245                  22403378.336    22403389.539
        46.600          33.400
 123184119.675 7  95987705.43245                  23441133.836    23441146.270
        43.600          33.800
 133757965.566 5 104227084.40842                  25453304.156    25453317.234
        31.300          17.800
 129140167.714 6 100628735.27842                  24574551.625    24574564.586
        37.500          17.800
 131561902.763 6 102515937.26944                  25035368.320    25035385.211
        37.700          28.000
 132151858.204 6 102975540.83844                  25147666.281    25147681.531
        38.100          24.500
 25  3 19  0 16 30.0000000  0 10G29G05G20G13G11G15G07G18G06G30
 111138610.798 8  86601612.68447                  21148962.023    21148971.645
        49.100          46.700
 106013369.165 8  82607960.00948                  20173633.984    20173642.902
        52.700          53.500
 110560389.328 8  86151052.90646                  21038899.008    21038907.633
        49.900          39.200
 113809158.530 8  88682509.14945                  21657132.500    21657141.711
        48.000          33.200
 117804168.070 7  91795543.26845                  22417343.984    22417355.012
        47.200          33.600
 123064998.450 7  95894883.97745                  23418465.656    23418478.266
        43.300          34.600
 133736576.267 5 104210417.54842                  25449237.109    25449246.848
        33.000          17.400
 129044274.858 6 100554013.66542                  24556303.031    24556316.344
        36.600          17.400
 131654933.018 6 102588428.23444                  25053070.859    25053087.750
        37.500          26.500
 132091798.210 6 102928740.92244                  25136237.320    25136252.980
        37.900          24.700
 25  3 19  0 17  0.0000000  0 10G29G05G20G13G11G15G07G18G06G30
 111109800.257 8  86579162.93147                  21143479.648    21143489.211
        49.700          47.000
 106006505.436 8  82602611.68348                  20172328.078    20172336.762
        52.600          53.800
 110614358.361 8  86193106.69346                  21049168.992    21049177.500
        49.300          39.100
 113719918.995 8  88612971.95745                  21640150.445    21640159.832
        48.000          33.500
 117877803.399 7  91852921.38445                  22431356.258    22431366.816
        45.800          34.000
 122946014.201 7  95802169.25745                  23395823.344    23395835.953
        43.400          33.500
 133715600.95514                                  25445239.789
        26.800
 128948394.622 6 100479301.95842                  24538058.031    24538071.168
        37.700          17.400
 131748053.711 6 102660989.67344                  25070790.602    25070808.781
        36.700          26.600
 132032004.211 6 102882148.27044                  25124858.570    25124874.172
        36.900          24.800
 25  3 19  0 17 30.0000000  0 10G29G05G20G13G11G15G07G18G06G30
 111081578.370 8  86557171.85647                  21138109.117    21138118.621
        48.800          47.200
 106000066.469 8  82597594.28348                  20171102.766    20171110.980
        52.900          53.500
 110668581.472 8  86235358.45746                  21059487.414    21059495.980
        49.400          39.800
 113631091.599 8  88543755.91645                  21623247.102    21623256.957
        48.200          33.700
 117951684.541 7  91910491.04145                  22445415.188    22445426.098
        46.100          32.700
 122827169.842 7  95709563.54545                  23373206.797    23373220.285
        42.200          33.700
 133695041.11215 104178052.71752                  25441329.844    25441343.508
        31.600          17.800
 128852528.325 6 100404601.06343                  24519815.102    24519828.063
        38.500          18.300
 131841264.425 6 102733621.27044                  25088528.508    25088545.516
        36.700          25.300
 131972479.022 6 102835765.05944                  25113530.797    25113546.398
        37.300          25.000
 25  3 19  0 18  0.0000000  0 10G29G05G20G13G11G15G07G18G06G30
 111053946.922 8  86535640.87147                  21132851.477    21132860.746
        48.800          47.400
 105994052.103 8  82592907.80248                  20169958.195    20169967.113
        52.000          53.700
 110723057.771 8  86277807.50046                  21069854.328    21069862.250
        48.800          39.500
 113542679.165 8  88474863.21645                  21606422.617    21606432.414
        48.100          33.800
 118025811.242 7  91968252.04345                  22459521.492    22459531.875
        45.800          32.300
 122708468.148 7  95617068.99145                  23350618.078    23350630.922
        42.100          32.800
 133674897.415 5 104162356.44743                  25437495.297    25437510.605
        30.800          18.600
 128756677.179 6 100329912.02842                  24501576.227    24501588.719
        37.600          17.400
 131934564.725 6 102806322.67744                  25106283.352    25106300.945
        37.600          26.900
 131913225.464 6 102789593.53044                  25102256.461    25102270.832
        38.100          26.700
 25  3 19  0 18 30.0000000  0 10G29G05G20G13G11G15G07G18G06G30
 111026906.792 8  86514570.66347                  21127706.000    21127715.211
        48.100          46.900
 105988461.373 8  82588551.44448                  20168894.219    20168902.902
        52.700          53.800
 110777786.119 8  86320452.94346                  21080268.531    21080276.980
        50.200          39.200
 113454684.545 8  88406296.07945                  21589677.656    21589687.688
        48.100          34.300
 118100182.628 7  92026203.72345                  22473672.797    22473685.055
        45.900          31.900
 122589911.511 7  95524687.45545                  23328057.883    23328070.727
        42.300          33.700
 133655171.523 5 104146985.77743                  25433745.313    25433756.633
        35.700          21.300
 128660842.034 6 100255235.45542                  24483337.594    24483351.023
        36.900          17.800
 132027953.811 6 102879093.31244                  25124053.859    25124072.449
        37.500          26.000
 131854245.801 6 102743635.41944                  25091032.758    25091048.242
        37.600          26.400
 25  3 19  0 19  0.0000000  0 10G29G05G20G13G11G15G07G18G06G30
 111000459.103 8  86493962.08947                  21122673.047    21122681.789
        49.700          47.300
 105983292.713 8  82584523.95348                  20167910.531    20167919.684
        51.900          53.500
 110832764.422 8  86363293.16346                  21090730.641    21090739.031
        49.500          39.200
 113367110.552 7  88338056.69245                  21573012.391    21573022.305
        47.600          34.000
 118174797.816 7  92084345.35945                  22487872.648    22487883.734
        45.600          32.300
 122471502.114 6  95432420.64945                  23305524.344    23305537.773
        41.600          33.600
 133635864.221 5 104131941.27543                  25430071.773    25430082.449
        35.400          22.200
 128565023.263 6 100180571.65443                  24465105.711    24465117.617
        37.100          18.600
 132121430.649 6 102951932.30344                  25141845.461    25141861.063
        38.800          26.400
 131795542.359 6 102697892.56644                  25079861.891    25079876.145
        37.400          27.900
 25  3 19  0 19 30.0000000  0 10G29G05G20G13G11G15G07G18G06G30
 110974605.171 8  86473816.18547                  21117752.992    21117762.438
        49.400          47.300
 105978545.850 8  82580825.10948                  20167007.398    20167016.199
        52.300          53.800
 110887991.809 8  86406327.46046                  21101239.875    21101248.324
        49.300          39.200
 113279960.047 8  88270147.30145                  21556428.875    21556438.555
        48.100          34.900
 118249656.278 7  92142676.55745                  22502117.852    22502128.469
        47.300          32.200
 122353242.471 6  95340270.53745                  23283020.664    23283033.215
        41.900          34.000
 133616976.714 6 104117223.93543                  25426475.898    25426487.629
        36.300          19.900
 128469221.984 5 100105921.50242                  24446874.453    24446887.414
        35.200          17.800
 132214994.662 6 103024839.20244                  25159648.039    25159665.984
        37.200          26.200
 131737117.676 5 102652366.89844                  25068742.086    25068758.156
        35.300          25.800
 25  3 19  0 20  0.0000000  0 10G29G05G20G13G11G15G07G18G06G30
 110949346.671 8  86454134.25047                  21112946.406    21112955.793
        49.000          47.400
 105974221.164 8  82577455.25248                  20166184.352    20166192.801
        52.000          53.500
 110943467.692 8  86449555.40246                  21111796.680    21111805.188
        49.200          38.900
 113193236.654 8  88202570.72045                  21539925.563    21539934.891
        48.000          35.000
 118324758.016 7  92201197.33345                  22516410.031    22516420.473
        46.600          33.000
 122235135.915 6  95248239.70045                  23260545.242    23260557.910
        41.800          33.700
 133598510.270 5 104102834.67043                  25422958.305    25422973.438
        32.500          19.000
 128373440.106 6 100031286.49142                  24428648.109    24428660.719
        36.400          17.800
 132308645.822 6 103097814.01144                  25177469.805    25177486.344
        36.300          27.400
 131678975.016 6 102607061.04744                  25057678.656    25057694.258
        36.100          28.200
 25  3 19  0 20 30.0000000  0 10G29G05G20G13G11G15G07G18G06G30
 110924684.872 8  86434917.26147                  21108253.148    21108262.594
        48.600          47.200
 105970317.464 8  82574413.48348                  20165441.164    20165450.258
        51.700          53.500
 110999190.847 8  86492976.01546                  21122400.313    21122409.113
        49.300          38.900
 113106943.262 7  88135329.20845                  21523504.484    21523514.164
        47.600          34.600
 118400102.389 7  92259907.14745                  22530747.117    22530757.793
        46.400          32.000
 122117185.086 7  95156330.21545                  23238100.000    23238112.434
        42.000          33.600
 133580466.592 5 104088774.78543                  25419525.492    25419539.508
        32.200          19.000
 128277678.144 5  99956666.89243                  24410424.344    24410437.949
        35.700          18.600
 132402383.360 6 103170856.10244                  25195308.094    25195322.816
        37.300          27.300
 131621116.613 6 102561976.65344                  25046669.711    25046684.023
        37.500          29.100
 25  3 19  0 21  0.0000000  0 10G29G05G20G13G11G15G07G18G06G30
 110900621.092 8  86416166.27147                  21103674.289    21103683.500
        49.300          47.200
 105966834.251 8  82571699.32548                  20164778.680    20164787.246
        52.300          53.500
 111055159.904 8  86536588.24746                  21133050.883    21133059.215
        48.400          38.800
 113021082.788 8  88068425.02145                  21507165.500    21507175.355
        48.400          34.800
 118475688.758 7  92318805.55545                  22545130.023    22545141.813
        46.300          31.900
 121999392.432 7  95064543.95345                  23215684.813    23215697.305
        42.700          34.300
 133562846.472 5 104075044.96442                  25416174.367    25416186.215
        35.500          17.800
 128181937.225 6  99882063.67843                  24392205.219    24392218.941
        36.500          19.000
 132496206.539 5 103243964.97944                  25213161.094    25213177.223
        34.700          24.400
 131563545.080 6 102517115.76344                  25035713.063    25035727.902
        37.200          27.600
 25  3 19  0 21 30.0000000  0 10G29G05G20G13G11G15G07G18G06G30
 110877156.072 8  86397881.85047                  21099209.297    21099218.215
        48.900          47.500
 105963770.992 8  82569312.38248                  20164195.719    20164203.934
        51.500          53.500
 111111373.851 8  86580391.30446                  21143748.289    21143757.090
        48.000          38.300
 112935657.845 8  88001860.20545                  21490910.430    21490919.406
        48.500          35.500
 118551516.397 7  92377891.96145                  22559560.570    22559570.836
        46.400          33.000
 121881760.270 7  94972882.74045                  23193300.086    23193312.402
        42.600          35.000
 133545650.602 6 104061645.86043                  25412903.141    25412913.230
        37.200          21.100
 128086218.500 6  99807477.80043                  24373989.078    24374004.270
        36.100          18.600
 132590114.654 5 103317140.01343                  25231031.383    25231047.219
        35.500          22.900
 131506262.804 6 102472480.28944                  25024813.352    25024827.664
        38.200          29.100
 25  3 19  0 22  0.0000000  0 10G29G05G20G13G11G15G07G18G06G30
 110854290.805 8  86380064.76647                  21094857.938    21094867.090
        49.700          47.300
 105961126.010 8  82567251.35348                  20163692.297    20163701.098
        52.300          53.400
 111167831.100 8  86624383.94846                  21154491.188    21154499.754
        48.000          38.600
 112850671.207 8  87935636.93445                  21474737.523    21474747.086
        48.000          35.700
 118627584.484 7  92437165.72145                  22574036.328    22574046.418
        47.100          32.600
 121764291.115 7  94881348.53645                  23170946.516    23170958.598
        42.600          35.100
 133528879.797 6 104048577.91543                  25409711.063    25409722.207
        37.600          20.400
 127990522.840 6  99732910.03443                  24355781.063    24355793.906
        37.500          20.600
 132684106.752 6 103390380.50743                  25248919.211    25248933.699
        36.600          22.200
 131449272.078 6 102428072.01644                  25013967.516    25013983.410
        37.200          26.200
 25  3 19  0 22 30.0000000  0 10G29G05G20G13G11G15G07G18G06G30
 110832026.801 8  86362716.19747                  21090620.922    21090630.719
        50.000          47.200
 105958899.511 8  82565516.38948                  20163268.828    20163277.512
        52.700          53.600
 111224530.911 8  86668565.60046                  21165280.797    21165290.184
        48.300          38.800
 112766126.078 8  87869757.69645                  21458648.820    21458658.969
        48.200          35.200
 118703892.831 7  92496626.70445                  22588556.375    22588567.109
        46.000          31.900
 121646987.877 7  94789943.62145                  23148624.344    23148636.719
        43.000          34.900
 133512535.962 6 104035842.60243                  25406600.922    25406610.836
        37.200          18.600
 127894851.428 5  99658361.11543                  24337573.703    24337587.367
        35.300          18.600
 132778182.634 5 103463686.30443                  25266820.305    25266835.672
        35.500          22.800
 131392575.813 6 102383893.17444                  25003177.930    25003193.473
        36.100          25.300
 25  3 19  0 23  0.0000000  0 10G29G05G20G13G11G15G07G18G06G30
 110810365.133 8  86345836.99447                  21086498.727    21086508.465
        49.500          47.100
 105957090.973 8  82564107.13348                  20162924.695    20162933.203
        52.100          53.500
 111281471.909 7  86712935.15746                  21176116.438    21176125.297
        47.900          37.900
 112682025.409 8  87804224.78645                  21442645.180    21442654.742
        48.600          35.200
 118780440.783 7  92556274.38045                  22603123.484    22603133.809
        47.000          32.800
 121529853.302 7  94698670.12045                  23126333.773    23126346.617
        43.600          35.300
 133496619.810 6 104023440.57943                  25403571.508    25403581.715
        37.300          21.500
 127799205.141 6  99583831.74043                  24319373.578    24319387.125
        36.900          20.400
 132872341.569 6 103537056.81944                  25284739.508    25284753.465
        36.300          25.400
 131336176.485 6 102339945.75744                  24992446.477    24992461.082
        36.900          26.900
 25  3 19  0 23 30.0000000  0 10G29G05G20G13G11G15G07G18G06G30
 110789307.188 8  86329428.22347                  21082491.805    21082501.250
        49.500          47.300
 105955698.962 8  82563022.46548                  20162659.594    20162667.984
        51.400          53.600
 111338652.980 8  86757491.78646                  21186997.961    21187006.879
        48.000          38.200
 112598372.215 7  87739040.55145                  21426726.203    21426736.117
        47.800          35.200
 118857227.677 7  92616108.25345                  22617735.805    22617746.480
        47.000          32.500
 121412889.992 7  94607530.06246                  23104076.797    23104089.113
        43.500          36.000
 133481132.109 6 104011372.45143                  25400625.047    25400634.141
        37.800          21.500
 127703585.247 6  99509322.93143                  24301176.625    24301190.996
        37.500          20.400
 132966582.796 6 103610491.46943                  25302673.016    25302687.680
        36.900          22.900
 131280076.571 5 102296231.64644                  24981770.313    24981785.504
        35.700          26.200
 25  3 19  0 24  0.0000000  0 10G29G05G20G13G11G15G07G18G06G30
 110768853.743 8  86313490.48647                  21078599.922    21078609.016
        49.300          47.700
 105954723.090 8  82562262.08648                  20162474.008    20162482.340
        51.300          53.700
 111396072.828 7  86802234.49646                  21197924.203    21197933.707
        47.400          38.600
 112515169.424 8  87674207.29245                  21410893.453    21410903.016
        48.100          35.300
 118934252.944 7  92676127.86145                  22632393.203    22632403.293
        47.300          32.800
 121296100.489 7  94516525.42946                  23081852.672    23081864.227
        43.400          36.200
 133466074.122 6 103999639.10443                  25397758.523    25397769.316
        37.900          22.500
 127607992.905 6  99434835.69043                  24282986.953    24283000.090
        38.100          20.600
 133060905.738 6 103683989.76143                  25320621.359    25320637.430
        36.000          23.000
 131224278.400 6 102252752.62444                  24971152.375    24971167.391
        37.200          27.200
 25  3 19  0 24 30.0000000  0 10G29G05G20G13G11G15G07G18G06G30
 110749006.170 8  86298024.85747                  21074823.328    21074831.543
        49.600          47.800
 105954163.699 8  82561826.23348                  20162367.641    20162376.090
        51.200          53.700
 111453731.104 7  86847162.98746                  21208897.086    21208905.828
        47.600          38.200
 112432418.500 8  87609726.12745                  21395146.320    21395155.883
        48.600          35.500
 119011516.402 7  92736333.06745                  22647095.242    22647106.563
        46.000          32.000
 121179487.894 7  94425658.64746                  23059661.625    23059673.824
        43.100          36.300
 133451446.986 6 103988241.48943                  25394974.586    25394985.086
        36.800          22.000
 127512429.554 6  99360371.01343                  24264802.273    24264815.059
        37.500          20.100
 133155310.193 5 103757551.56143                  25338584.859    25338602.570
        34.600          23.900
 131168785.083 5 102209511.14544                  24960592.977    24960607.406
        34.600          25.300
 25  3 19  0 25  0.0000000  0 10G29G05G20G13G11G15G07G18G06G30
 110729765.324 8  86283032.00247                  21071161.547    21071170.875
        49.800          47.400
 105954019.072 8  82561713.56048                  20162339.922    20162348.195
        51.100          53.500
 111511626.249 7  86892276.04946                  21219914.281    21219922.613
        47.900          38.400
 112350124.960 7  87545601.36745                  21379485.914    21379496.590
        47.000          35.400
 119089017.178 7  92796723.20845                  22661843.109    22661854.957
        46.000          31.700
 121063054.289 7  94334931.32346                  23037505.016    23037517.098
        43.700          36.400
 133437251.512 6 103977180.20743                  25392274.688    25392282.727
        39.800          21.800
 127416895.987 6  99285929.57943                  24246621.797    24246635.109
        38.400          20.600
 133249795.071 5 103831176.09143                  25356565.641    25356583.293
        35.400          23.200
 131113598.552 5 102166508.75143                  24950090.867    24950105.883
        34.300          23.200
 25  3 19  0 25 30.0000000  0 10G29G05G20G13G11G15G07G18G06G30
 110711132.483 8  86268512.91547                  21067615.383    21067624.828
        49.400          47.600
 105954289.200 8  82561924.06048                  20162391.383    20162399.949
        51.400          53.500
 111569757.256 8  86937572.89046                  21230975.656    21230984.105
        48.000          38.200
 112268289.690 7  87481833.70045                  21363913.906    21363923.469
        47.000          34.800
 119166754.772 7  92857297.87845                  22676636.281    22676647.719
        45.600          32.300
 120946802.472 7  94244345.63846                  23015383.008    23015394.504
        42.500          36.900
 133423489.037 6 103966456.29843                  25389655.180    25389663.629
        39.600          21.500
 127321393.487 6  99211512.32643                  24228447.367    24228461.797
        38.800          20.100
 133344359.955 5 103904862.96843                  25374560.367    25374577.434
        34.800          22.800
 131058721.760 5 102123747.74143                  24939648.016    24939663.148
        33.000          22.800
 25  3 19  0 26  0.0000000  0 10G29G05G20G13G11G15G07G18G06G30
 110693108.398 8  86254468.18247                  21064185.680    21064194.949
        50.100          47.600
 105954972.885 8  82562456.81048                  20162521.227    20162529.734
        51.200          53.500
 111628122.542 7  86983052.29746                  21242082.039    21242091.309
        47.500          37.700
 112186916.488 7  87418426.08645                  21348428.188    21348438.512
        47.800          35.000
 119244728.375 7  92918056.45545                  22691474.039    22691485.828
        45.500          32.200
 120830734.909 7  94153903.52446                  22993295.688    22993307.945
        43.700          36.700
 133410160.184 6 103956070.26643                  25387118.273    25387127.191
        39.800          21.800
 127225922.645 6  99137119.65043                  24210280.672    24210293.926
        38.000          20.100
 133439003.95715 103978611.43853                  25392569.789    25392587.090
        33.500          22.000
 131004156.898 5 102081229.76743                  24929262.477    24929279.016
        31.300          21.300
 25  3 19  0 26 30.0000000  0 10G29G05G20G13G11G15G07G18G06G30
 110675694.109 8  86240898.61947                  21060871.570    21060881.426
        49.600          47.600
 105956068.845 8  82563310.82248                  20162729.813    20162738.320
        51.200          53.400
 111686721.458 8  87028713.74546                  21253233.438    21253241.945
        48.100          37.400
 112106007.239 7  87355379.99245                  21333031.734    21333041.648
        47.600          34.300
 119322937.636 7  92978998.64945                  22706357.633    22706368.660
        45.800          32.200
 120714854.364 7  94063607.13346                  22971244.922    22971255.773
        43.400          37.500
 133397265.739 6 103946022.76243                  25384664.469    25384673.094
        39.700          21.100
 127130485.189 6  99062752.96443                  24192119.813    24192132.656
        39.400          20.400
 133533726.614 5 104052421.21543                  25410595.016    25410612.961
        31.800          21.100
 130949906.467 5 102038956.74243                  24918938.688    24918955.871
        31.000          20.100
 25  3 19  0 27  0.0000000  0 10G29G05G20G13G11G15G07G18G06G30
 110658890.705 8  86227805.06547                  21057674.539    21057684.219
        49.900          47.900
 105957577.967 8  82564486.78248                  20163017.008    20163025.633
        49.700          53.500
 111745552.845 7  87074556.31846                  21264428.773    21264437.457
        46.300          37.300
 112025566.005 8  87292698.58245                  21317724.492    21317734.582
        48.100          34.800
 119401382.000 7  93040124.06345                  22721284.648    22721296.672
        45.800          31.200
 120599163.671 7  93973458.67346                  22949229.227    22949240.488
        43.100          37.400
 133384807.125 6 103936314.86843                  25382292.055    25382302.672
        36.700          21.100
 127035082.322 6  98988413.28843                  24173964.875    24173977.016
        40.000          19.600
 133628527.350 5 104126291.85043                  25428635.102    25428651.699
        31.500          19.000
 130895973.087 5 101996930.87043                  24908675.953    24908691.203
        30.300          19.600
 25  3 19  0 27 30.0000000  0 10G29G05G20G13G11G15G07G18G06G30
 110642698.906 8  86215188.08248                  21054592.930    21054602.668
        49.900          48.000
 105959498.061 8  82565982.98248                  20163382.453    20163390.727
        51.100          53.500
 111804615.351 8  87120579.01946                  21275667.688    21275676.840
        48.100          37.900
 111945594.077 8  87230382.88045                  21302505.977    21302515.422
        48.200          35.200
 119480060.474 7  93101431.89345                  22736256.547    22736268.805
        45.100          32.000
 120483665.136 7  93883459.94346                  22927250.609    22927261.520
        43.800          37.400
 133372784.719 6 103926946.94443                  25380006.047    25380014.789
        38.600          21.300
 126939714.529 6  98914100.79043                  24155817.164    24155829.246
        39.100          20.600
 133723405.15514                                  25446690.008
        29.600
 130842358.88715 101955153.71853                  24898474.781    24898489.387
        30.700          19.000
 25  3 19  0 28  0.0000000  0 10G29G05G20G13G11G15G07G18G06G30
 110627119.733 8  86203048.46647                  21051628.273    21051638.129
        50.300          47.800
 105961828.734 8  82567799.13048                  20163825.719    20163834.227
        51.000          53.400
 111863908.001 7  87166781.06446                  21286951.531    21286959.629
        47.300          37.800
 111866095.772 8  87168436.21345                  21287377.547    21287387.695
        48.000          34.800
 119558972.720 7  93162921.88545                  22751273.453    22751284.949
        46.000          32.800
 120368361.711 7  93793613.23546                  22905308.609    22905320.398
        43.300          37.700
 133361199.596 6 103917919.80743                  25377799.867    25377809.664
        37.900          22.200
 126844383.562 6  98839817.04543                  24137674.414    24137688.020
        38.800          19.300
 133818359.63014                                  25464759.617
        28.900
 130789066.590 5 101913627.35643                  24888334.156    24888347.703
        32.500          21.500
 25  3 19  0 28 30.0000000  0  9G29G05G20G13G11G15G07G18G30
 110612153.834 8  86191386.73248                  21048780.484    21048790.398
        49.600          48.100
 105964568.926 8  82569934.34648                  20164347.477    20164356.102
        51.700          53.300
 111923429.036 8  87213161.05246                  21298277.711    21298286.512
        48.000          37.300
 111787073.397 8  87106860.41645                  21272340.563    21272349.949
        48.600          34.100
 119638117.840 7  93224593.33945                  22766334.625    22766345.652
        45.500          31.500
 120253255.640 7  93703920.30646                  22883404.070    22883416.328
        43.500          38.200
 133350052.761 6 103909234.12543                  25375680.766    25375688.922
        36.500          23.000
 126749090.265 6  98765562.64943                  24119542.344    24119553.957
        40.100          20.400
 130736098.285 5 101872353.49643                  24878253.758    24878268.363
        31.600          21.100
 25  3 19  0 29  0.0000000  0  9G29G05G20G13G11G15G07G18G30
 110597802.561 8  86180203.91947                  21046049.563    21046059.301
        49.500          47.600
 105967719.296 8  82572389.18748                  20164947.094    20164955.367
        51.400          53.500
 111983178.609 8  87259719.14846                  21309646.773    21309655.750
        48.200          37.600
 111708528.214 8  87045656.46245                  21257394.219    21257403.840
        48.400          33.700
 119717495.834 7  93286446.25445                  22781439.750    22781450.836
        44.400          31.400
 120138350.070 7  93614383.60046                  22861538.938    22861550.375
        43.200          38.100
 133339345.343 6 103900890.83744                  25373642.352    25373652.266
        37.500          26.400
 126653836.255 6  98691338.84743                  24101415.000    24101428.137
        39.700          19.600
 130683457.126 5 101831334.50243                  24868232.555    24868250.559
        30.100          19.300
 25  3 19  0 29 30.0000000  0  9G29G05G20G13G11G15G07G18G30
 110584066.057 8  86169500.14647                  21043435.977    21043445.305
        50.500          47.400
 105971277.434 8  82575161.75348                  20165623.805    20165632.430
        51.400          53.400
 112043154.663 7  87306453.71946                  21321059.914    21321068.949
        47.300          36.300
 111630464.652 8  86984827.79745                  21242538.711    21242547.980
        48.800          34.300
 119797105.209 7  93348479.44445                  22796588.953    22796599.863
        45.200          31.100
 120023647.243 7  93525004.87046                  22839711.336    22839723.066
        44.500          38.100
 133329077.088 5 103892889.72544                  25371686.109    25371697.957
        34.800          24.300
 126558622.074 6  98617146.03943                  24083295.945    24083309.258
        39.000          20.900
 130631144.501 5 101790571.54243                  24858279.531    24858295.191
        31.600          19.600
 25  3 19  0 30  0.0000000  0  9G29G05G20G13G11G15G07G18G30
 110570945.889 8  86159276.63347                  21040938.781    21040948.344
        49.300          47.400
 105975244.164 8  82578252.71648                  20166378.477    20166387.043
        52.000          53.200
 112103356.743 8  87353364.41546                  21332516.555    21332525.121
        48.400          36.700
 111552885.321 8  86924376.44345                  21227775.961    21227785.582
        49.000          35.000
 119876946.045 7  93410693.00545                  22811782.383    22811793.352
        44.300          31.300
 119909149.913 7  93435786.25046                  22817923.102    22817935.301
        43.900          38.500
 133319249.750 5 103885232.26843                  25369817.125    25369827.684
        35.600          23.600
 126463449.646 6  98542985.82343                  24065186.109    24065197.957
        40.000          20.600
 130579163.68914 101750067.18653                  24848386.797    24848403.805
        29.900          19.000
 25  3 19  0 30 30.0000000  0  8G29G05G20G13G11G15G07G18
 110558442.210 8  86149533.50647                  21038559.719    21038569.457
        49.700          47.600
 105979617.837 8  82581660.75648                  20167210.883    20167219.215
        51.700          53.300
 112163783.299 8  87400450.02046                  21344015.289    21344024.090
        48.000          36.700
 111475791.684 8  86864303.57145                  21213105.375    21213114.703
        49.300          35.100
 119957017.443 7  93473086.21045                  22827019.469    22827030.555
        44.600          31.200
 119794860.436 7  93346729.60446                  22796174.633    22796186.188
        44.700          39.200
 133309863.923 6 103877918.79344                  25368032.094    25368042.008
        36.000          24.700
 126368319.983 6  98468859.04143                  24047082.469    24047095.020
        38.900          19.900
 25  3 19  0 31  0.0000000  0  8G29G05G20G13G11G15G07G18
 110546555.827 8  86140271.38747                  21036297.641    21036307.086
        49.800          47.800
 105984397.075 8  82585384.82848                  20168120.664    20168129.582
        51.600          53.400
 112224432.695 8  87447709.24746                  21355556.836    21355565.520
        48.100          37.200
 111399187.298 8  86804611.93245                  21198527.969    21198537.355
        49.500          34.800
 120037318.272 7  93535658.19245                  22842299.844    22842311.164
        44.700          31.300
 119680781.541 7  93257837.04946                  22774465.484    22774477.566
        44.900          38.600
 133300919.921 6 103870949.68344                  25366329.789    25366339.645
        36.100          24.500
 126273233.889 6  98394766.22543                  24028987.328    24028999.996
        39.400          20.100
 25  3 19  0 31 30.0000000  0  8G29G05G20G13G11G15G07G18
 110535287.302 8  86131490.72847                  21034153.234    21034162.504
        49.800          47.800
 105989581.435 8  82589424.59648                  20169106.867    20169115.375
        52.200          53.300
 112285304.184 8  87495141.51746                  21367140.313    21367148.645
        48.400          37.500
 111323075.761 8  86745304.32945                  21184044.414    21184053.625
        49.900          34.900
 120117848.046 7  93598408.59545                  22857624.727    22857635.285
        44.300          31.800
 119566915.468 7  93169110.32846                  22752797.852    22752809.934
        45.000          39.000
 133292418.728 5 103864325.58243                  25364712.555    25364721.414
        35.200          23.600
 126178192.514 6  98320708.29043                  24010902.656    24010914.035
        41.000          21.300
 25  3 19  0 32  0.0000000  0  8G29G05G20G13G11G15G07G18
 110524637.294 8  86123192.03447                  21032126.352    21032135.914
        50.200          47.500
 105995170.145 8  82593779.44748                  20170170.422    20170179.516
        51.700          53.100
 112346396.680 8  87542746.05746                  21378765.820    21378774.563
        48.700          37.400
 111247457.651 8  86686381.20145                  21169654.953    21169663.461
        50.300          35.100
 120198606.040 7  93661336.83045                  22872992.328    22873003.238
        45.000          30.900
 119453264.995 7  93080551.62346                  22731170.773    22731182.328
        45.000          39.100
 133284360.879 6 103858046.90844                  25363178.484    25363187.637
        38.200          25.600
 126083197.008 6  98246686.08343                  23992825.750    23992836.895
        40.400          21.300
 25  3 19  0 32 30.0000000  0  8G29G05G20G13G11G15G07G18
 110514606.983 8  86115376.22647                  21030217.719    21030226.930
        49.900          47.500
 106001162.070 8  82598448.44548                  20171311.039    20171319.488
        51.900          53.200
 112407709.418 8  87590522.22046                  21390433.523    21390442.559
        48.500          37.400
 111172336.766 8  86627845.52845                  21155360.156    21155368.605
        50.900          35.200
 120279591.824 7  93724442.55945                  22888403.258    22888414.402
        44.800          31.700
 119339832.826 7  92992163.02046                  22709584.656    22709596.738
        45.400          38.800
 133276747.313 5 103852114.50943                  25361729.266    25361738.652
        35.900          23.800
 125988248.862 6  98172700.77043                  23974756.602    23974768.566
        39.700          19.900
 25  3 19  0 33  0.0000000  0  8G29G05G20G13G11G15G07G18
 110505196.407 8  86108043.33847                  21028426.695    21028436.199
        50.200          47.900
 106007556.606 8  82603431.18748                  20172527.531    20172536.449
        52.200          53.200
 112469241.012 8  87638468.92146                  21402142.586    21402150.918
        49.000          37.500
 111097714.793 8  86569698.62745                  21141159.727    21141168.527
        50.300          35.900
 120360804.704 7  93787725.24745                  22903857.961    22903868.930
        45.300          31.400
 119226621.721 7  92903946.67946                  22688041.523    22688053.254
        44.800          39.100
 133269578.769 6 103846528.88343                  25360364.797    25360374.008
        37.300          22.800
 125893349.092 6  98098753.06343                  23956698.125    23956710.266
        39.900          21.800
 25  3 19  0 33 30.0000000  0  8G29G05G20G13G11G15G07G18
 110496407.159 8  86101194.60347                  21026754.461    21026763.555
        50.700          47.600
 106014353.966 8  82608727.80848                  20173821.227    20173829.676
        52.700          53.200
 112530991.009 8  87686585.77846                  21413893.125    21413901.516
        49.500          37.400
 111023596.205 8  86511943.96946                  21127055.086    21127064.473
        50.700          36.800
 120442244.495 7  93851184.74445                  22919355.391    22919366.652
        45.300          32.300
 119113635.175 7  92815905.32346                  22666540.477    22666552.266
        44.700          38.700
 133262855.857 5 103841290.41043                  25359083.531    25359094.500
        35.500          22.600
 125798499.582 6  98024844.53943                  23938648.508    23938661.000
        38.800          22.000
 25  3 19  0 34  0.0000000  0  8G29G05G20G13G11G15G07G18
 110488239.697 8  86094830.38547                  21025200.531    21025209.801
        49.900          47.800
 106021553.208 8  82614337.62148                  20175191.086    20175199.770
        52.600          52.900
 112592958.204 8  87734871.87746                  21425686.094    21425694.074
        49.300          38.000
 110949982.557 8  86454582.77046                  21113046.602    21113056.223
        50.700          36.200
 120523910.478 7  93914820.49845                  22934896.164    22934906.957
        46.100          31.100
 119000875.178 7  92728040.51046                  22645083.117    22645094.672
        45.500          38.700
 133256579.805 5 103836400.19343                  25357889.117    25357900.379
        35.900          23.500
 125703701.599 6  97950976.13443                  23920607.188    23920621.969
        37.600          20.600
 25  3 19  0 34 30.0000000  0  8G29G05G20G13G11G15G07G18
 110480694.894 8  86088951.36248                  21023764.469    21023774.207
        49.900          48.200
 106029153.375 8  82620259.85948                  20176637.109    20176646.086
        52.900          52.900
 112655141.638 8  87783326.49046                  21437518.672    21437527.414
        49.400          37.900
 110876877.574 8  86397617.93946                  21099135.570    21099144.781
        50.800          36.300
 120605801.833 7  93978631.86045                  22950479.727    22950490.988
        45.800          31.900
 118888344.209 7  92640354.15046                  22623669.031    22623680.469
        45.400          38.600
 133250751.407 6 103831858.80643                  25356781.008    25356790.102
        37.800          22.900
 125608956.291 6  97877148.77343                  23902578.258    23902591.980
        38.500          20.400
 25  3 19  0 35  0.0000000  0  9G29G05G20G13G11G15G07G18G30
 110473772.240 8  86083557.11948                  21022447.961    21022456.645
        49.100          48.100
 106037152.539 8  82626492.95748                  20178159.266    20178168.125
        52.000          52.800
 112717539.644 8  87831948.30546                  21449392.531    21449400.512
        49.500          37.500
 110804282.059 8  86341050.09346                  21085321.258    21085330.059
        51.200          36.400
 120687917.280 7  94042617.84245                  22966106.523    22966116.965
        45.800          32.100
 118776044.421 7  92552847.94646                  22602299.016    22602311.039
        45.300          38.900
 133245370.245 6 103827665.96444                  25355759.016    25355766.645
        38.800          27.100
 125514264.171 6  97803362.81043                  23884560.195    23884572.688
        38.600          20.600
 130078050.35615 101359623.43153                  24753037.461    24753055.406
        31.900          21.700
 25  3 19  0 35 30.0000000  0  9G29G05G20G13G11G15G07G18G30
 110467471.808 8  86078647.73648                  21021248.375    21021257.469
        49.300          48.700
 106045550.533 8  82633036.86748                  20179757.250    20179765.875
        51.600          52.800
 112780151.231 8  87880736.56946                  21461306.523    21461315.676
        49.000          37.600
 110732198.670 8  86284881.31146                  21071603.977    21071613.012
        50.600          36.600
 120770256.083 7  94106777.86945                  22981774.742    22981785.887
        45.000          32.300
 118663978.538 7  92465524.01046                  22580973.445    22580985.762
        45.600          38.400
 133240436.763 6 103823821.89444                  25354819.203    25354828.238
        39.700          27.200
 125419626.555 6  97729619.32543                  23866549.172    23866562.660
        39.400          21.100
 130029869.776 5 101322080.28243                  24743869.289    24743886.063
        31.900          22.600
 25  3 19  0 36  0.0000000  0  9G29G05G20G13G11G15G07G18G30
 110461794.664 8  86074224.02748                  21020168.078    21020177.465
        49.600          48.100
 106054345.868 8  82639890.36748                  20181431.234    20181439.508
        51.600          52.800
 112842974.745 8  87929689.92846                  21473261.688    21473270.195
        48.600          37.600
 110660630.134 8  86229113.72446                  21057984.750    21057994.020
        50.400          37.100
 120852817.697 7  94171111.51245                  22997486.023    22997496.582
        45.000          32.000
 118552149.034 7  92378384.28246                  22559693.117    22559705.082
        45.700          39.200
 133235952.036 6 103820327.55944                  25353964.688    25353974.719
        37.900          26.900
 125325044.869 6  97655919.38743                  23848551.844    23848564.805
        39.000          20.100
 129982048.184 5 101284816.90043                  24734767.906    24734784.563
        32.000          21.100
 25  3 19  0 36 30.0000000  0  9G29G05G20G13G11G15G07G18G30
 110456742.037 8  86070286.97347                  21019206.664    21019215.934
        49.700          47.900
 106063538.800 8  82647053.67648                  20183180.531    20183189.391
        52.300          53.400
 112906010.119 8  87978808.38046                  21485256.438    21485265.355
        49.000          37.600
 110589579.713 8  86173749.84546                  21044464.086    21044473.355
        50.300          36.700
 120935602.093 7  94235618.75445                  23013238.422    23013249.098
        44.300          31.700
 118440559.433 7  92291431.48346                  22538458.773    22538470.387
        45.000          39.700
 133231916.174 6 103817182.94344                  25353195.734    25353206.469
        38.200          24.300
 125230521.147 6  97582264.62943                  23830564.789    23830578.277
        40.900          21.700
 129934588.802 5 101247835.78843                  24725739.672    24725753.102
        34.600          22.300
 25  3 19  0 37  0.0000000  0  9G29G05G20G13G11G15G07G18G30
 110452313.738 8  86066836.40647                  21018363.453    21018372.840
        50.000          47.700
 106073127.953 8  82654525.73848                  20185005.344    20185014.027
        51.600          52.700
 112969255.863 8  88028090.78646                  21497291.977    21497300.895
        49.100          37.100
 110519049.240 8  86118791.12446                  21031042.555    21031051.414
        50.300          36.800
 121018608.000 7  94300298.62445                  23029034.016    23029044.984
        44.800          31.200
 118329211.468 7  92204666.97246                  22517270.078    22517281.516
        45.100          39.800
 133228330.388 6 103814389.02344                  25352513.906    25352523.410
        37.800          25.000
 125136056.138 6  97508655.63643                  23812588.453    23812601.766
        40.100          21.300
 129887493.075 5 101211138.04844                  24716777.102    24716791.180
        35.900          24.600
 25  3 19  0 37 30.0000000  0  9G29G05G20G13G11G15G07G18G30
 110448509.940 8  86063872.46447                  21017639.719    21017648.637
        49.800          47.900
 106083112.354 8  82662305.79148                  20186905.328    20186914.246
        51.700          52.700
 113032710.633 8  88077536.03946                  21509366.625    21509376.246
        48.400          37.600
 110449041.120 8  86064239.43246                  21017720.398    21017729.727
        50.500          37.100
 121101834.581 7  94365150.41945                  23044871.500    23044882.879
        43.400          30.400
 118218107.827 7  92118092.85546                  22496127.641    22496139.195
        45.000          39.800
 133225195.395 6 103811946.31444                  25351917.563    25351927.008
        37.800          24.700
 125041651.146 6  97435093.53543                  23794623.086    23794637.223
        38.800          21.300
 129840763.217 6 101174725.38844                  24707884.844    24707898.098
        37.100          25.900
 25  3 19  0 38  0.0000000  0  9G29G05G20G13G11G15G07G18G30
 110445331.251 8  86061395.61348                  21017035.305    21017044.398
        50.000          48.100
 106093490.739 8  82670392.82248                  20188880.438    20188889.121
        52.300          52.700
 113096373.906 8  88127143.77446                  21521481.531    21521490.625
        48.300          36.100
 110379558.132 8  86010096.93746                  21004498.594    21004506.926
        50.800          37.800
 121185281.267 7  94430173.72245                  23060751.555    23060762.055
        44.300          30.200
 118107251.021 7  92031711.06846                  22475031.750    22475043.480
        44.900          40.000
 133222511.332 6 103809855.04443                  25351406.289    25351416.027
        37.200          23.200
 124947307.714 6  97361579.51543                  23776670.719    23776684.090
        39.400          22.200
 129794401.555 6 101138599.62044                  24699062.711    24699076.199
        38.100          26.800
 25  3 19  0 38 30.0000000  0  9G29G05G20G13G11G15G07G18G30
 110442778.262 8  86059406.31347                  21016548.836    21016558.281
        50.200          47.900
 106104263.050 8  82678786.85848                  20190930.031    20190939.008
        51.700          52.600
 113160244.933 8  88176913.44446                  21533636.055    21533644.621
        48.900          36.800
 110310602.996 8  85956365.75446                  20991376.391    20991385.543
        50.400          37.700
 121268947.645 7  94495368.20845                  23076672.984    23076683.895
        45.000          31.300
 117996644.286 7  91945524.15346                  22453983.758    22453995.488
        45.000          39.400
 133220278.599 6 103808115.51544                  25350981.453    25350991.016
        36.700          26.700
 124853026.971 6  97288114.26543                  23758729.727    23758742.160
        39.300          22.500
 129748410.541 6 101102762.61844                  24690311.055    24690322.844
        39.900          26.500
 25  3 19  0 39  0.0000000  0  9G29G05G20G13G11G15G07G18G30
 110440852.056 8  86057905.43047                  21016182.367    21016191.695
        49.300          47.900
 106115429.786 8  82687488.21548                  20193054.906    20193063.941
        51.500          53.000
 113224322.799 8  88226844.25446                  21545829.445    21545838.188
        48.000          36.000
 110242178.434 8  85903047.99646                  20978355.727    20978364.938
        50.000          38.000
 121352833.497 7  94560733.72344                  23092635.742    23092646.301
        43.500          29.600
 117886290.594 7  91859534.41246                  22432984.039    22432995.477
        45.100          39.600
 133218498.681 5 103806728.75844                  25350641.758    25350651.555
        34.300          24.500
 124758810.804 6  97214699.25643                  23740800.875    23740813.602
        38.200          22.600
 129702793.050 6 101067216.71444                  24681629.969    24681642.813
        37.400          26.400
 25  3 19  0 39 30.0000000  0  9G29G05G20G13G11G15G07G18G30
 110439552.110 8  86056892.55548                  21015935.125    21015944.160
        50.600          48.400
 106126987.999 8  82696494.70948                  20195254.711    20195263.512
        52.200          53.200
 113288605.907 7  88276934.98045                  21558061.789    21558070.883
        47.700          35.500
 110174286.464 8  85850145.25546                  20965436.734    20965445.359
        50.800          37.900
 121436937.532 7  94626269.24645                  23108640.172    23108651.199
        43.000          31.200
 117776191.778 7  91773743.28346                  22412032.961    22412044.574
        44.300          39.700
 133217170.895 5 103805694.41044                  25350388.375    25350399.051
        35.300          24.300
 124664660.178 6  97141335.25043                  23722884.414    23722897.434
        37.900          21.800
 129657550.609 6 101031963.02344                  24673018.883    24673033.430
        37.200          25.600
 25  3 19  0 40  0.0000000  0  9G29G05G20G13G11G15G07G18G30
 110438879.399 8  86056368.41348                  21015807.039    21015816.367
        51.100          48.500
 106138937.847 8  82705806.31448                  20197528.414    20197537.273
        51.200          52.900
 113353093.776 8  88327185.26045                  21570334.227    21570342.441
        48.000          35.700
 110106929.650 8  85797659.51246                  20952618.578    20952627.320
        50.200          37.800
 121521259.296 7  94691974.44744                  23124685.594    23124697.207
        43.700          28.400
 117666351.010 7  91688153.23546                  22391131.133    22391141.984
        44.800          40.400
 133216296.835 5 103805013.51143                  25350220.219    25350232.594
        32.600          21.500
 124570576.258 6  97068023.06143                  23704981.133    23704993.801
        39.000          23.400
 129612685.590 6 100997003.41844                  24664481.375    24664495.039
        37.300          25.800
 25  3 19  0 40 30.0000000  0  9G29G05G20G13G11G15G07G18G30
 110438834.378 8  86056333.36848                  21015798.320    21015808.176
        50.300          48.100
 106151279.012 8  82715422.92848                  20199876.758    20199885.500
        51.700          52.400
 113417785.515 8  88377594.44046                  21582644.930    21582652.793
        49.000          36.200
 110040110.372 8  85745592.63146                  20939903.195    20939911.996
        50.500          38.100
 121605798.082 7  94757848.75744                  23140772.461    23140784.426
        42.700          28.200
 117556770.766 7  91602766.20746                  22370278.727    22370289.578
        45.100          40.100
 133215876.621 5 103804686.32043                  25350140.648    25350152.145
        33.500          22.600
 124476561.274 6  96994764.76543                  23687090.594    23687102.910
        39.500          21.300
 129568200.274 6 100962339.67644                  24656016.070    24656031.086
        38.400          25.500
 25  3 19  0 41  0.0000000  0  9G29G05G20G13G11G15G07G18G30
 110439415.244 8  86056786.01748                  21015909.031    21015918.301
        50.100          48.100
 106164008.187 8  82725341.89048                  20202299.211    20202307.543
        52.200          52.900
 113482678.899 8  88428160.77146                  21594993.406    21595001.797
        48.000          36.000
 109973830.096 8  85693945.74946                  20927290.523    20927299.441
        50.400          37.800
 121690552.229 6  94823890.85344                  23156900.102    23156913.063
        41.800          27.600
 117447452.832 7  91517583.56646                  22349475.711    22349486.797
        44.500          39.300
 133215909.494 5 103804712.15443                  25350149.969    25350157.891
        35.800          22.900
 124382615.714 6  96921560.73943                  23669212.703    23669225.430
        38.500          22.500
 129524095.920 6 100927972.73944                  24647625.250    24647636.805
        38.900          26.800
 25  3 19  0 41 30.0000000  0  9G29G05G20G13G11G15G07G18G30
 110440623.758 8  86057727.74647                  21016139.078    21016148.348
        50.300          47.900
 106177126.336 8  82735563.91448                  20204795.422    20204803.813
        51.800          52.800
 113547773.850 7  88478884.13745                  21607379.680    21607388.773
        47.200          35.500
 109908092.158 8  85642721.45846                  20914780.539    20914789.281
        50.500          38.700
 121775521.838 7  94890100.85844                  23173069.438    23173082.105
        42.800          28.200
 117338400.231 7  91432607.68746                  22328724.125    22328734.977
        45.100          38.900
 133216396.473 5 103805091.80143                  25350239.516    25350250.777
        32.600          21.700
 124288741.308 6  96848412.18843                  23651348.922    23651361.590
        39.400          22.200
 129480375.481 6 100893905.01344                  24639304.125    24639315.738
        39.000          25.700
 25  3 19  0 42  0.0000000  0  9G29G05G20G13G11G15G07G18G30
 110442460.461 8  86059158.97147                  21016488.445    21016498.008
        49.900          47.900
 106190633.305 8  82746088.85648                  20207365.555    20207374.297
        51.400          52.400
 113613069.565 7  88529763.93145                  21619805.250    21619814.285
        47.200          35.400
 109842899.094 8  85591921.75546                  20902374.859    20902383.543
        50.900          37.600
 121860706.546 7  94956478.48644                  23189280.672    23189292.402
        42.700          28.900
 117229616.137 7  91347841.03646                  22308022.727    22308033.344
        44.400          39.700
 133217338.962 5 103805826.36443                  25350416.961    25350430.273
        33.400          20.600
 124194939.455 6  96775319.96243                  23633498.305    23633511.266
        38.900          21.500
 129437041.430 6 100860138.39344                  24631057.055    24631069.547
        38.700          26.500
 25  3 19  0 42 30.0000000  0  9G29G05G20G13G11G15G07G18G30
 110444925.096 8  86061079.49447                  21016957.320    21016966.824
        49.000          47.600
 106204526.878 8  82756915.04248                  20210009.125    20210017.809
        51.900          52.500
 113678564.610 7  88580799.03945                  21632268.992    21632276.914
        46.400          35.200
 109778252.769 8  85541548.08046                  20890073.359    20890081.867
        51.200          38.400
 121946105.164 6  95023022.78944                  23205530.250    23205542.742
        41.600          27.700
 117121102.943 7  91263285.46846                  22287372.773    22287383.742
        45.000          39.300
 133218736.527 5 103806915.60843                  25350683.984    25350695.891
        34.400          23.600
 124101211.057 6  96702284.74943                  23615662.875    23615674.723
        39.700          20.900
 129394095.516 6 100826674.20744                  24622885.789    24622898.340
        39.400          26.700
 25  3 19  0 43  0.0000000  0  9G29G05G20G13G11G15G07G18G30
 110448017.368 8  86063489.10348                  21017545.320    21017554.883
        49.800          48.100
 106218805.702 8  82768041.54248                  20212726.359    20212735.219
        51.500          52.400
 113744257.636 7  88631988.44345                  21644769.469    21644778.152
        47.000          35.600
 109714155.086 8  85491601.91346                  20877875.727    20877884.703
        50.700          38.500
 122031716.375 6  95089732.73344                  23221821.898    23221834.156
        41.800          28.200
 117012862.491 7  91178942.42746                  22266774.898    22266785.809
        44.900          39.400
 133220589.022 6 103808359.31644                  25351037.938    25351047.383
        37.100          24.300
 124007557.825 6  96629308.35643                  23597840.703    23597852.375
        39.700          21.100
 129351539.190 6 100793513.59144                  24614787.602    24614799.508
        40.500          26.500
 25  3 19  0 43 30.0000000  0  9G29G05G20G13G11G15G07G18G30
 110451737.445 8  86066387.89647                  21018253.508    21018262.777
        50.800          47.800
 106233469.121 8  82779467.64548                  20215516.477    20215525.160
        51.400          52.700
 113810147.943 7  88683331.58245                  21657307.727    21657316.879
        47.000          35.500
 109650608.423 8  85442085.11746                  20865782.688    20865792.133
        50.000          38.400
 122117539.682 6  95156607.97644                  23238153.477    23238165.559
        41.100          26.300
 116904897.719 7  91094814.20446                  22246229.047    22246239.840
        43.900          38.500
 133222896.698 6 103810157.65744                  25351475.984    25351486.895
        36.500          24.500
 123913980.967 6  96556391.38843                  23580033.063    23580045.438
        39.600          22.200
 129309374.954 6 100760658.49244                  24606763.617    24606776.988
        39.000          25.300
 25  3 19  0 44  0.0000000  0  9G29G05G20G13G11G15G07G18G30
 110456086.205 8  86069776.57347                  21019081.336    21019090.488
        49.000          47.900
 106248517.949 8  82791193.95748                  20218380.641    20218389.090
        51.300          52.300
 113876235.468 7  88734828.37045                  21669884.883    21669892.688
        46.100          35.300
 109587615.872 8  85393000.08646                  20853795.539    20853804.223
        50.100          38.100
 122203575.273 6  95223648.62344                  23254525.156    23254538.469
        40.000          27.500
 116797211.801 7  91010903.26746                  22225737.961    22225748.695
        45.000          38.800
 133225660.991 6 103812311.79344                  25352003.664    25352013.344
        37.000          26.100
 123820482.911 6  96483535.88943                  23562241.242    23562253.676
        40.600          23.000
 129267605.658 6 100728111.07744                  24598814.547    24598827.449
        38.100          25.100
 25  3 19  0 44 30.0000000  0  9G29G05G20G13G11G15G07G18G30
 110461062.511 8  86073654.22647                  21020027.539    21020037.512
        50.000          47.500
 106263949.187 8  82803218.31448                  20221316.914    20221325.188
        51.100          52.100
 113942517.360 7  88786476.60945                  21682497.664    21682505.879
        47.500          35.500
 109525178.058 8  85344347.32346                  20841914.453    20841923.137
        50.100          38.200
 122289820.712 6  95290852.80044                  23270938.773    23270950.563
        41.500          27.100
 116689806.219 7  90927210.76946                  22205299.773    22205309.395
        45.600          38.400
 133228880.852 6 103814821.03644                  25352616.391    25352625.074
        36.200          26.500
 123727063.819 6  96410742.08343                  23544464.266    23544476.406
        38.800          22.600
 129226231.764 6 100695871.82944                  24590941.820    24590953.902
        38.900          25.300
 25  3 19  0 45  0.0000000  0  9G29G05G20G13G11G15G07G18G30
 110466667.315 8  86078021.62147                  21021094.563    21021103.891
        50.600          47.800
 106279762.844 8  82815540.68348                  20224326.344    20224334.910
        51.400          52.700
 114008993.676 7  88838276.34745                  21695147.406    21695156.266
        47.500          35.700
 109463298.353 8  85296129.44446                  20830139.055    20830147.855
        50.300          38.400
 122376276.357 6  95358220.76644                  23287389.922    23287402.531
        40.200          27.700
 116582684.276 7  90843739.28746                  22184914.477    22184924.449
        45.700          38.900
 133232556.996 6 103817685.75944                  25353316.047    25353324.262
        37.900          26.000
 123633725.783 6  96338011.48943                  23526702.547    23526714.512
        39.400          22.000
 129185256.438 6 100663943.08044                  24583143.336    24583156.004
        37.600          24.600
 25  3 19  0 45 30.0000000  0  9G29G05G20G13G11G15G07G18G30
 110472899.874 8  86082878.17747                  21022280.773    21022289.984
        49.300          47.600
 106295957.251 8  82828159.75548                  20227407.930    20227416.379
        52.300          52.700
 114075662.772 7  88890226.30245                  21707834.289    21707842.973
        46.900          34.600
 109401978.109 8  85248347.52346                  20818470.039    20818478.957
        50.300          38.500
 122462940.814 6  95425751.42544                  23303882.383    23303894.406
        40.500          26.500
 116475847.597 7  90760490.08546                  22164583.547    22164594.105
        45.100          39.500
 133236689.859 6 103820906.37044                  25354101.172    25354110.617
        36.600          26.000
 123540469.591 6  96265344.61143                  23508956.500    23508968.582
        39.700          21.700
 129144681.118 6 100632326.07644                  24575422.875    24575435.191
        37.600          26.300
 25  3 19  0 46  0.0000000  0  9G29G05G20G13G11G15G07G18G30
 110479760.825 8  86088224.38547                  21023586.172    21023595.734
        49.800          47.800
 106312532.545 8  82841075.63848                  20230562.000    20230570.098
        51.100          52.500
 114142524.403 7  88942326.25945                  21720557.875    21720566.031
        47.700          35.100
 109341220.435 8  85201003.95846                  20806907.875    20806917.203
        50.000          38.300
 122549813.820 6  95493444.60744                  23320413.328    23320425.586
        40.800          27.100
 116369299.687 7  90677465.89746                  22144308.234    22144318.910
        45.400          39.500
 133241280.275 6 103824483.44444                  25354976.664    25354984.762
        37.700          27.200
 123447297.366 6  96192743.16743                  23491226.836    23491237.688
        40.400          21.100
 129104508.381 6 100601022.73444                  24567779.047    24567789.840
        38.200          26.000
 25  3 19  0 46 30.0000000  0  9G29G05G20G13G11G15G07G18G30
 110487250.024 8  86094060.14548                  21025011.445    21025021.008
        49.800          48.000
 106329487.491 8  82854287.37248                  20233788.422    20233796.813
        51.600          52.500
 114209577.951 7  88994575.77245                  21733317.133    21733325.758
        47.200          34.800
 109281027.269 8  85154100.27246                  20795453.500    20795463.004
        50.600          38.300
 122636894.707 6  95561299.78844                  23336983.953    23336996.328
        40.800          26.800
 116263043.133 7  90594668.74146                  22124088.016    22124098.984
        46.000          39.900
 133246327.272 6 103828416.33444                  25355934.797    25355944.535
        38.500          26.100
 123354210.365 6  96120208.06343                  23473512.602    23473523.688
        40.100          21.800
 129064740.350 6 100570034.76744                  24560209.492    24560221.984
        37.300          24.700
 25  3 19  0 47  0.0000000  0  9G29G05G20G13G11G15G07G18G30
 110495367.515 8  86100385.47247                  21026555.945    21026565.332
        49.300          47.500
 106346821.209 8  82867794.19148                  20237086.680    20237094.250
        51.400          52.300
 114276821.724 7  89046973.50245                  21746113.641    21746122.266
        47.000          34.200
 109221400.459 8  85107637.90446                  20784106.680    20784115.832
        50.200          38.800
 122724182.459 6  95629316.15444                  23353594.078    23353606.512
        41.300          27.400
 116157080.370 7  90512100.51446                  22103923.875    22103935.430
        45.100          40.300
 133251831.793 6 103832705.67244                  25356983.977    25356991.488
        36.900          24.700
 123261210.179 6  96047740.68243                  23455815.438    23455825.996
        40.600          22.800
 129025378.845 6 100539363.58843                  24552720.430    24552732.219
        36.400          23.900
 25  3 19  0 47 30.0000000  0  9G29G05G20G13G11G15G07G18G30
 110504112.773 8  86107199.97847                  21028219.922    21028229.895
        48.500          47.800
 106364532.177 8  82881594.95648                  20240457.305    20240465.461
        51.700          52.200
 114344254.819 7  89099518.72945                  21758944.867    21758954.020
        45.600          33.800
 109162342.097 8  85061618.47746                  20772868.344    20772877.086
        50.700          38.700
 122811676.088 6  95697492.94344                  23370244.094    23370256.469
        41.600          28.700
 116051413.333 7  90429762.71746                  22083815.922    22083826.832
        47.000          40.400
 133257794.162 5 103837351.91244                  25358117.641    25358126.090
        35.600          25.500
 123168297.748 6  95975341.56443                  23438134.172    23438144.906
        41.400          23.000
 128986425.528 6 100509010.50244                  24545309.164    24545319.371
        37.600          25.600
 25  3 19  0 48  0.0000000  0  9G29G05G20G13G11G15G07G18G30
 110513485.744 8  86114503.60147                  21030004.172    21030013.090
        48.700          47.600
 106382619.744 8  82895689.22448                  20243899.086    20243907.242
        51.400          52.100
 114411876.646 7  89152211.05945                  21771813.609    21771822.059
        46.300          34.200
 109103854.659 8  85016043.92746                  20761738.656    20761747.164
        51.500          38.600
 122899375.052 6  95765829.73244                  23386932.070    23386945.031
        41.400          25.700
 115946045.172 7  90347657.82246                  22063764.805    22063775.949
        47.000          40.900
 133264214.319 5 103842354.84744                  25359338.719    25359348.457
        35.500          24.200
 123075474.723 6  95903011.94843                  23420469.938    23420481.551
        41.100          22.600
 128947882.656 6 100478977.24444                  24537974.875    24537985.492
        38.000          26.200
 25  3 19  0 48 30.0000000  0  9G29G05G20G13G11G15G07G18G30
 110523486.932 8  86122296.73247                  21031907.156    21031916.309
        50.000          47.900
 106401083.871 8  82910076.90048                  20247412.828    20247420.809
        51.300          52.200
 114479686.484 7  89205049.89145                  21784717.305    21784725.871
        46.100          33.900
 109045940.103 8  84970915.77746                  20750717.977    20750726.191
        51.000          38.400
 122987278.722 6  95834326.02244                  23403660.383    23403672.406
        41.600          28.100
 115840978.611 7  90265787.94646                  22043771.711    22043782.328
        47.200          40.900
 133271092.688 5 103847714.80043                  25360646.914    25360657.883
        34.400          22.600
 122982743.073 6  95830753.54343                  23402823.594    23402835.324
        41.800          23.000
 128909752.407 6 100449265.51044                  24530715.742    24530730.230
        36.400          25.500
 25  3 19  0 49  0.0000000  0  9G29G05G20G13G11G15G07G18G30
 110534115.469 8  86130578.72747                  21033929.672    21033938.473
        49.600          47.600
 106419922.089 8  82924756.09048                  20250997.070    20251005.578
        51.000          52.100
 114547682.417 7  89258033.72645                  21797656.578    21797664.793
        46.400          33.900
 108988599.903 8  84926235.16846                  20739806.617    20739815.066
        50.900          38.700
 123075385.889 6  95902980.89644                  23420427.758    23420438.609
        41.800          28.000
 115736215.680 7  90184154.65646                  22023835.898    22023845.871
        47.500          41.400
 133278428.769 5 103853431.60243                  25362042.547    25362052.461
        34.200          22.000
 122890104.359 6  95758567.83943                  23385195.172    23385206.902
        41.700          22.200
 128872036.301 6 100419876.45844                  24523540.125    24523552.090
        36.200          24.400
 25  3 19  0 49 30.0000000  0  9G29G05G20G13G11G15G07G18G30
 110545371.568 8  86139349.71748                  21036071.469    21036080.914
        50.000          48.100
 106439134.838 8  82939727.13348                  20254653.609    20254661.766
        51.500          52.100
 114615864.235 7  89311162.40745                  21810630.516    21810639.258
        45.500          33.100
 108931836.668 8  84882004.15146                  20729005.219    20729013.141
        51.000          39.200
 123163696.004 7  95971793.90944                  23437231.648    23437243.613
        42.500          26.400
 115631759.140 7  90102760.10746                  22003958.477    22003968.215
        46.900          41.400
 133286222.690 5 103859505.06943                  25363525.820    25363535.793
        34.600          22.000
 122797560.381 7  95686456.15843                  23367583.836    23367595.391
        42.300          22.500
 128834736.495 5 100390811.78544                  24516440.703    24516454.602
        34.800          25.000
 25  3 19  0 50  0.0000000  0  9G29G05G20G13G11G15G07G18G30
 110557254.712 8  86148609.32547                  21038332.672    21038341.766
        50.000          47.600
 106458720.299 8  82954988.60948                  20258380.047    20258388.906
        50.900          51.900
 114684230.991 7  89364435.21845                  21823640.523    21823649.148
        46.400          33.600
 108875652.422 8  84838224.29246                  20718312.969    20718321.887
        50.900          39.400
 123252208.200 7  96040764.39644                  23454074.773    23454086.738
        42.400          25.900
 115527611.842 7  90021606.52847                  21984139.898    21984150.047
        47.200          42.500
 133294475.080 5 103865935.77143                  25365096.219    25365105.078
        35.000          23.000
 122705111.660 6  95614418.43143                  23349991.664    23350002.340
        41.800          22.000
 128797854.886 6 100362073.00444                  24509424.258    24509436.691
        36.700          25.500
 25  3 19  0 50 30.0000000  0  9G29G05G20G13G11G15G07G18G30
 110569764.907 8  86158357.53547                  21040713.547    21040722.406
        49.800          47.600
 106478678.444 8  82970540.47148                  20262178.398    20262186.672
        51.300          52.000
 114752781.854 7  89417851.46645                  21836685.633    21836694.199
        46.000          32.400
 108820049.192 8  84794897.16846                  20707732.180    20707740.980
        51.300          39.200
 123340922.064 7  96109892.00144                  23470956.867    23470968.305
        42.800          26.000
 115423776.228 7  89940695.81446                  21964380.547    21964390.695
        46.800          41.800
 133303186.093 5 103872723.77643                  25366752.594    25366762.566
        35.500          20.900
 122612760.379 6  95542456.57044                  23332418.617    23332428.766
        41.900          24.200
 128761393.798 6 100333661.87744                  24502484.156    24502497.703
        36.800          27.500
 25  3 19  0 51  0.0000000  0  9G29G05G20G13G11G15G07G18G30
 110582902.052 8  86168594.27247                  21043213.266    21043222.594
        50.200          47.600
 106499008.669 8  82986382.23048                  20266046.961    20266055.410
        51.200          51.900
 114821516.083 7  89471410.60345                  21849765.375    21849774.293
        45.900          33.400
 108765029.371 8  84752024.65646                  20697262.125    20697270.867
        50.900          39.600
 123429836.847 7  96179176.17444                  23487877.742    23487888.770
        44.100          27.000
 115320255.117 7  89860030.16847                  21944680.547    21944691.223
        46.400          42.300
 133312355.912 5 103879869.21943                  25368498.070    25368506.871
        35.300          22.000
 122520508.139 6  95470571.79244                  23314862.633    23314873.543
        40.900          24.500
 128725355.082 6 100305579.88944                  24495627.398    24495639.305
        37.600          27.900
 25  3 19  0 51 30.0000000  0  9G29G05G20G13G11G15G07G18G30
 110596665.725 8  86179319.21848                  21045832.336    21045841.430
        50.100          48.100
 106519709.195 8  83002512.52948                  20269986.016    20269994.230
        50.900          51.900
 114890432.483 7  89525111.70245                  21862878.977    21862888.305
        45.400          32.000
 108710594.169 8  84709607.69946                  20686903.555    20686912.297
        50.800          39.400
 123518951.415 7  96248616.00644                  23504836.141    23504846.816
        44.100          26.700
 115217050.482 7  89779611.11847                  21925041.289    21925051.496
        45.900          42.100
 133321984.365 5 103887372.08843                  25370330.492    25370338.824
        35.200          19.000
 122428355.844 6  95398764.67143                  23297328.211    23297338.066
        41.700          22.900
 128689740.351 5 100277828.26244                  24488848.047    24488861.418
        35.900          26.600
 25  3 19  0 52  0.0000000  0  9G29G05G20G13G11G15G07G18G30
 110611054.955 8  86190531.61347                  21048570.891    21048579.867
        50.500          47.800
 106540777.939 8  83018929.71048                  20273995.359    20274003.516
        51.500          51.700
 114959529.538 7  89578953.54545                  21876028.031    21876036.891
        45.100          33.200
 108656744.792 8  84667647.21246                  20676656.133    20676664.406
        51.100          39.200
 123608264.168 7  96318210.27044                  23521832.195    23521841.875
        44.600          28.000
 115114164.233 7  89699440.16747                  21905462.633    21905473.016
        46.900          42.600
 133332070.548 6 103895231.58843                  25372250.008    25372257.578
        36.500          20.600
 122336305.315 6  95327037.07144                  23279810.727    23279821.285
        41.200          25.700
 128654550.756 5 100250407.90344                  24482151.055    24482165.426
        35.900          25.100
 25  3 19  0 52 30.0000000  0  9G29G05G20G13G11G15G07G18G30
 110626069.728 8  86202231.44247                  21051428.164    21051436.965
        49.900          47.800
 106562214.277 8  83035633.33548                  20278074.500    20278082.246
        51.400          51.800
 115028806.381 7  89632935.51145                  21889210.242    21889219.336
        44.300          32.100
 108603483.712 8  84626145.15246                  20666520.734    20666529.770
        50.600          40.100
 123697774.461 7  96387958.43644                  23538864.367    23538875.746
        44.200          27.000
 115011599.237 7  89619519.53547                  21885945.102    21885955.367
        46.700          42.900
 133342614.579 6 103903448.03943                  25374256.945    25374263.578
        36.200          20.600
 122244358.310 6  95255390.35743                  23262313.391    23262323.598
        41.800          23.500
 128619788.300 5 100223320.37744                  24475536.023    24475551.273
        34.700          27.600
 25  3 19  0 53  0.0000000  0  9G29G05G20G13G11G15G07G18G30
 110641709.154 8  86214418.00447                  21054403.789    21054412.883
        49.900          47.800
 106584017.451 8  83052622.80548                  20282223.500    20282231.891
        50.500          51.900
 115098262.152 7  89687056.91345                  21902427.539    21902436.809
        45.300          31.500
 108550812.955 8  84585103.08046                  20656497.828    20656506.395
        51.300          39.800
 123787481.743 7  96457860.11544                  23555935.945    23555946.504
        44.300          27.500
 114909358.031 7  89539851.20147                  21866489.016    21866499.105
        46.900          42.200
 133353617.019 6 103912021.58543                  25376349.773    25376358.105
        36.400          23.200
 122152515.835 6  95183824.97044                  23244836.586    23244846.148
        41.900          24.900
 128585454.971 5 100196567.24144                  24469002.797    24469017.285
        34.000          26.200
 25  3 19  0 53 30.0000000  0  9G29G05G20G13G11G15G07G18G30
 110657973.607 8  86227091.60948                  21057498.992    21057507.910
        49.800          48.100
 106606187.797 8  83069898.40948                  20286442.297    20286450.688
        51.800          51.500
 115167896.646 7  89741317.55445                  21915678.594    21915687.805
        44.900          32.200
 108498734.593 8  84544522.60946                  20646587.820    20646596.211
        51.300          40.100
 123877385.752 7  96527915.07844                  23573044.539    23573054.512
        44.100          27.900
 114807443.681 7  89460437.56647                  21847095.141    21847105.816
        46.300          43.100
 133365078.208 5 103920952.59643                  25378529.047    25378538.141
        34.800          20.100
 122060780.284 6  95112342.88743                  23227378.273    23227389.770
        40.700          22.600
 128551553.370 5 100170150.52244                  24462553.625    24462566.938
        34.500          25.900
 25  3 19  0 54  0.0000000  0  9G29G05G20G13G11G15G07G18G30
 110674862.891 8  86240252.09948                  21060712.859    21060722.188
        50.300          48.100
 106628723.976 8  83087459.07648                  20290731.273    20290739.313
        51.800          51.800
 115237708.870 7  89795716.67945                  21928963.188    21928972.516
        44.500          32.200
 108447250.344 8  84504405.08546                  20636790.609    20636798.590
        50.800          39.000
 123967485.262 7  96598122.37444                  23590189.352    23590199.441
        43.400          27.100
 114705858.409 7  89381280.33847                  21827764.219    21827774.719
        46.700          43.300
 133376997.626 5 103930240.61443                  25380796.742    25380806.188
        33.700          18.300
 121969153.187 6  95040945.40344                  23209942.508    23209953.887
        41.300          24.400
 128518084.823 5 100144071.24244                  24456184.883    24456198.254
        34.600          25.200
 25  3 19  0 54 30.0000000  0  9G29G05G20G13G11G15G07G18G30
 110692375.944 8  86253898.63547                  21064045.672    21064054.824
        49.900          47.800
 106651624.190 8  83105303.40148                  20295088.633    20295096.672
        51.700          51.900
 115307697.423 7  89850253.21045                  21942282.133    21942290.523
        46.000          32.500
 108396361.687 8  84464751.65746                  20627106.266    20627114.246
        50.300          38.900
 124057779.243 7  96668481.21844                  23607372.344    23607382.609
        42.800          25.500
 114604604.437 7  89302381.28147                  21808496.000    21808505.973
        47.900          42.500
 133389375.181 5 103939885.60743                  25383156.016    25383160.598
        35.600          19.900
 121877635.778 6  94969633.45944                  23192527.602    23192538.688
        41.500          25.000
 128485050.918 5 100118330.60943                  24449896.227    24449910.773
        33.900          22.900
 25  3 19  0 55  0.0000000  0 10G29G05G20G13G23G11G15G07G18G30
 110710512.216 8  86268030.80047                  21067496.180    21067505.684
        50.600          47.600
 106674887.598 8  83123430.77448                  20299515.469    20299523.273
        51.700          51.600
 115377861.111 7  89904926.20645                  21955634.023    21955643.000
        46.400          33.400
 108346070.484 8  84425563.78046                  20617536.156    20617544.430
        51.000          39.100
 130107052.60915                                  24758554.695
        31.800
 124148266.741 7  96738990.85544                  23624590.328    23624601.766
        42.600          26.100
 114503684.264 7  89223742.31647                  21789291.820    21789301.441
        46.800          43.200
 133402210.536 5 103949887.38743                  25385595.844    25385603.590
        34.000          19.900
 121786229.243 6  94898407.74143                  23175132.484    23175143.746
        40.800          22.800
 128452453.232 5 100092929.96643                  24443694.523    24443706.957
        33.500          23.500
 25  3 19  0 55 30.0000000  0 10G29G05G20G13G23G11G15G07G18G30
 110729271.736 8  86282648.60347                  21071066.352    21071075.797
        49.600          47.300
 106698513.755 8  83141840.79648                  20304011.398    20304019.906
        51.000          51.200
 115448200.794 7  89959736.33445                  21969019.961    21969027.766
        46.800          34.000
 108296379.070 8  84386843.27446                  20608079.984    20608088.434
        51.200          39.400
 130015493.50415                                  24741131.172
        33.700
 124238947.544 7  96809651.09944                  23641847.477    23641858.035
        43.100          25.000
 114403100.934 7  89145365.82447                  21770151.086    21770161.059
        47.100          43.000
 133415503.783 5 103960245.86843                  25388124.625    25388133.426
        33.100          19.300
 121694936.063 6  94827270.34644                  23157760.508    23157771.535
        41.800          25.500
 128420294.236 5 100067871.13243                  24437571.914    24437588.043
        31.000          20.400
 25  3 19  0 56  0.0000000  0 10G29G05G20G13G23G11G15G07G18G30
 110748653.872 8  86297751.57647                  21074754.789    21074764.176
        49.900          47.700
 106722502.188 8  83160533.13748                  20308576.414    20308584.336
        51.700          51.500
 115518713.862 7  90014681.54445                  21982437.609    21982446.059
        47.000          32.500
 108247288.934 8  84348591.29146                  20598738.758    20598746.855
        50.800          39.200
 129924016.710 5                                  24723721.164
        32.000
 124329820.676 6  96880461.20644                  23659139.609    23659151.047
        41.500          24.900
 114302856.894 7  89067253.72847                  21751075.172    21751085.086
        47.800          43.000
 133429255.669 5 103970961.81543                  25390741.766    25390749.160
        32.500          19.600
 121603757.694 6  94756222.38644                  23140410.109    23140421.078
        41.600          24.800
 128388575.51214 100043155.29153                  24431535.117    24431552.125
        29.900          21.500
 25  3 19  0 56 30.0000000  0 10G29G05G20G13G23G11G15G07G18G30
 110768657.670 8  86313338.96447                  21078561.695    21078570.203
        50.700          47.800
 106746851.061 8  83179506.33948                  20313209.523    20313217.621
        51.600          51.500
 115589399.943 7  90069761.56545                  21995888.797    21995897.246
        46.500          33.600
 108198801.693 8  84310809.09546                  20589511.852    20589520.008
        50.900          39.500
 129832622.39315                                  24706330.320
        32.500
 124420885.030 6  96951420.32843                  23676467.883    23676479.789
        40.400          22.200
 114202954.086 7  88989407.52047                  21732064.484    21732074.574
        47.600          42.600
 133443465.392 5 103982034.54043                  25393446.789    25393451.957
        35.500          19.000
 121512695.546 6  94685264.94744                  23123081.563    23123092.063
        41.600          25.400
 128357298.55815 100018783.71153                  24425584.078    24425600.852
        31.800          22.800
 25  3 19  0 57  0.0000000  0 10G29G05G20G13G23G11G15G07G18G30
 110789282.448 8  86329410.22447                  21082485.758    21082495.203
        50.100          47.400
 106771558.921 8  83198759.23648                  20317911.430    20317919.527
        51.300          51.200
 115660257.926 7  90124975.55945                  22009372.992    22009381.734
        46.500          33.500
 108150918.222 8  84273497.36546                  20580399.602    20580408.227
        51.000          39.900
 129741310.647 5                                  24688951.844
        31.200
 124512139.215 6  97022527.40043                  23693832.125    23693844.559
        39.600          22.200
 114103394.721 7  88911828.91647                  21713118.578    21713128.316
        47.600          43.100
 133458132.524 5 103993463.71743                  25396235.984    25396242.676
        34.100          19.000
 121421751.041 6  94614399.31744                  23105774.266    23105785.000
        41.600          24.700
 128326464.67615                                  24419715.969
        30.300
 25  3 19  0 57 30.0000000  0 10G29G05G20G13G23G11G15G07G18G30
 110810528.540 8  86345965.64647                  21086529.047    21086538.258
        48.000          47.300
 106796626.022 8  83218292.05448                  20322681.469    20322689.859
        49.300          51.200
 115731287.638 7  90180323.36745                  22022888.438    22022897.707
        46.100          33.300
 108103641.342 8  84236658.30346                  20571403.297    20571411.688
        50.900          40.200
 129650082.92615                                  24671592.125
        31.800
 124603583.296 6  97093782.44443                  23711234.898    23711245.691
        40.300          22.800
 114004182.110 7  88834520.52147                  21694238.609    21694248.523
        47.000          42.700
 133473257.114 5 104005249.24643                  25399114.695    25399121.094
        34.400          18.300
 121330926.269 6  94543626.88644                  23088491.156    23088501.656
        41.400          24.600
 128296076.18815  99971078.09353                  24413932.914    24413949.629
        30.500          22.600
 25  3 19  0 58  0.0000000  0 10G29G05G20G13G23G11G15G07G18G30
 110832393.940 8  86363003.64247                  21090689.891    21090699.102
        49.900          47.300
 106822050.910 8  83238103.69548                  20327519.641    20327527.445
        51.600          51.300
 115802487.657 7  90235803.86545                  22036437.570    22036447.016
        46.300          33.300
 108056972.188 8  84200292.80046                  20562522.539    20562530.988
        51.200          39.400
 129558939.174 5                                  24654251.375
        33.700
 124695215.734 6  97165184.24843                  23728671.305    23728683.445
        39.600          21.800
 113905318.154 7  88757483.80447                  21675425.648    21675435.504
        46.900          42.900
 133488838.874 6 104017391.00943                  25402080.727    25402086.891
        36.400          20.100
 121240222.430 6  94472948.65344                  23071231.148    23071241.063
        41.800          25.800
 128266134.38614  99947746.94353                  24408234.875    24408252.234
        29.400          21.300
 25  3 19  0 58 30.0000000  0 10G29G05G20G13G23G11G15G07G18G30
 110854878.065 8  86380523.75947                  21094968.516    21094977.727
        49.100          47.600
 106847831.630 8  83258192.62648                  20332425.398    20332433.672
        50.700          51.100
 115873856.451 7  90291415.89145                  22050018.820    22050028.090
        45.700          32.500
 108010911.560 8  84164401.46846                  20553757.586    20553766.035
        51.400          39.800
 129467879.434 5                                  24636920.281
        32.800
 124787035.290 6  97236731.86443                  23746144.563    23746155.648
        39.800          22.500
 113806804.770 7  88680720.25947                  21656678.805    21656688.836
        47.000          42.900
 133504876.940 5 104029888.31643                  25405131.633    25405139.320
        34.700          20.400
 121149641.041 6  94402365.93144                  23053993.852    23054003.355
        41.300          24.700
 128236640.54015  99924764.81653                  24402625.469    24402638.840
        31.500          20.400
 25  3 19  0 59  0.0000000  0 10G29G05G20G13G23G11G15G07G18G30
 110877980.729 7  86398525.85747                  21099365.023    21099373.824
        47.200          47.600
 106873967.897 8  83278558.52848                  20337398.969    20337406.949
        48.600          50.900
 115945393.838 7  90347159.28745                  22063632.969    22063641.184
        46.700          33.200
 107965462.018 8  84128986.30746                  20545108.602    20545117.109
        50.900          39.800
 129376904.801 5                                  24619610.273
        34.800
 124879041.518 6  97308424.92243                  23763652.328    23763664.645
        39.500          21.700
 113708644.915 7  88604232.20147                  21637999.422    21638009.688
        47.100          43.100
 133521371.742 6 104042741.56943                  25408271.383    25408277.781
        36.400          20.400
 121059184.161 6  94331880.28643                  23036780.305    23036790.043
        41.100          22.800
 128207596.548 4  99902133.27943                  24397094.484    24397111.727
        28.900          20.600
 25  3 19  0 59 30.0000000  0 10G29G05G20G13G23G11G15G07G18G30
 110901701.091 8  86417009.28847                  21103878.961    21103887.645
        49.600          47.800
 106900458.598 8  83299200.64348                  20342439.961    20342448.059
        50.900          50.900
 116017098.952 7  90403033.41745                  22077277.445    22077286.012
        46.400          32.600
 107920624.918 8  84094048.37546                  20536576.297    20536584.453
        51.500          40.900
 129286015.645 5                                  24602314.664
        35.000
 124971233.500 6  97380262.68343                  23781196.523    23781208.547
        40.400          21.800
 113610840.849 7  88528021.35447                  21619387.680    21619398.180
        46.000          43.200
 133538322.907 6 104055950.42543                  25411497.133    25411502.828
        37.100          19.000
 120968853.328 6  94261492.86644                  23019590.266    23019600.180
        40.800          24.700
 128179004.11014  99879853.57253                  24391657.188    24391671.500
        29.900          21.300
 25  3 19  1  0  0.0000000  0 10G29G05G20G13G23G11G15G07G18G30
 110926038.407 8  86435973.45047                  21108510.188    21108518.930
        49.700          47.300
 106927303.152 8  83320118.52448                  20347548.016    20347556.230
        50.700          50.900
 116088970.954 7  90459037.52845                  22090953.828    22090962.688
        46.400          33.400
 107876401.613 8  84059588.72446                  20528160.859    20528168.840
        51.200          40.000
 129195212.523 5                                  24585033.844
        35.000
 125063610.379 6  97452244.57043                  23798775.156    23798787.414
        39.900          22.200
 113513395.061 7  88452089.69447                  21600844.609    21600854.816
        46.700          43.500
 133555730.074 6 104069514.54543                  25414808.836    25414815.117
        37.000          19.300
 120878650.144 6  94191204.88243                  23002423.961    23002434.461
        40.300          23.600
 128150864.98914  99857927.08553                  24386298.063    24386316.535
        29.600          20.400
 25  3 19  1  0 30.0000000  0 10G29G05G20G13G23G11G15G07G18G30
 110950991.824 7  86455417.70047                  21113258.445    21113267.305
        47.000          47.400
 106954499.995 8  83341310.90848                  20352723.555    20352731.711
        48.500          51.000
 116161008.741 7  90515170.81545                  22104662.211    22104671.129
        45.900          32.400
 107832793.723 8  84025608.61646                  20519862.242    20519870.457
        51.600          39.400
 129104495.949 5                                  24567770.953
        34.000
 125156171.187 6  97524369.84943                  23816387.375    23816401.512
        38.000          21.700
 113416310.062 7  88376439.16347                  21582369.609    21582380.227
        46.600          44.100
 133573592.774 6 104083433.60543                  25418210.609    25418214.605
        36.600          19.000
 120788576.546 6  94121017.97243                  22985284.063    22985293.977
        39.700          22.900
 128123180.41015  99836354.86353                  24381033.242    24381046.965
        32.200          21.500
 25  3 19  1  1  0.0000000  0 10G29G05G20G13G23G11G15G07G18G30
 110976560.278 7  86475341.20147                  21118123.469    21118132.504
        46.600          47.000
 106982047.940 8  83362776.81848                  20357966.031    20357973.895
        48.400          51.000
 116233211.446 7  90571432.63045                  22118401.648    22118410.684
        46.200          32.500
 107789802.576 8  83992109.09346                  20511681.703    20511690.328
        51.100          39.900
 129013866.108 5                                  24550523.891
        34.700
 125248914.733 6  97596637.47343                  23834035.852    23834050.105
        37.900          22.200
 113319587.838 7  88301071.30947                  21563963.938    21563974.848
        46.700          44.500
 133591910.638 6 104097707.33243                  25421695.164    25421700.859
        36.200          18.300
 120698633.721 6  94050932.96544                  22968169.875    22968178.500
        40.900          24.700
 128095951.829 5  99815137.88143                  24375852.016    24375866.621
        33.700          22.500
 25  3 19  1  1 30.0000000  0 10G29G05G20G13G23G11G15G07G18G30
 111002743.498 8  86495743.74347                  21123106.289    21123114.738
        49.200          47.000
 107009946.613 8  83384516.02548                  20363274.828    20363283.043
        50.700          51.300
 116305578.544 7  90627822.56845                  22132173.406    22132181.973
        46.000          32.400
 107747429.597 8  83959091.25246                  20503617.945    20503626.043
        51.100          40.300
 128923323.854 5                                  24533295.406
        35.700
 125341840.521 6  97669047.10843                  23851720.797    23851732.527
        39.900          22.300
 113223231.204 7  88225988.34147                  21545627.977    21545638.184
        47.100          44.100
 133610683.986 5 104112335.96142                  25425268.180    25425273.172
        35.900          17.800
 120608823.206 6  93980950.74444                  22951079.172    22951088.148
        41.600          24.200
 128069181.256 5  99794277.77143                  24370756.461    24370771.770
        33.000          22.500
 25  3 19  1  2  0.0000000  0 10G29G05G20G13G23G11G15G07G18G30
 111029540.013 8  86516624.16447                  21128205.164    21128214.727
        48.400          47.400
 107038194.413 8  83406527.25848                  20368650.328    20368658.719
        50.700          51.200
 116378108.931 7  90684339.73445                  22145975.141    22145983.824
        46.000          31.900
 107705676.097 8  83926556.12346                  20495673.094    20495680.664
        51.300          40.700
 128832869.260 5                                  24516081.102
        34.900
 125434947.290 6  97741597.75243                  23869439.727    23869450.637
        40.200          23.000
 113127242.184 7  88151191.82447                  21527361.547    21527372.164
        47.500          44.100
 133629911.920 5 104127318.88742                  25428925.250    25428931.473
        34.900          16.900
 120519147.058 6  93911073.27443                  22934014.172    22934023.734
        40.200          22.800
 128042869.688 5  99773775.38043                  24365751.883    24365765.078
        35.500          22.900
 25  3 19  1  2 30.0000000  0 10G29G05G20G13G23G11G15G07G18G30
 111056949.603 7  86537982.32047                  21133421.711    21133430.629
        47.000          47.100
 107066791.746 8  83428810.91148                  20374092.133    20374100.406
        48.600          50.800
 116450802.000 7  90740983.67345                  22159808.453    22159816.375
        46.000          31.700
 107664543.867 8  83894505.10346                  20487845.477    20487853.809
        50.900          40.400
 128742503.435 5                                  24498884.750
        34.600
 125528234.396 6  97814288.89343                  23887191.422    23887203.094
        39.800          22.000
 113031623.990 7  88076684.25447                  21509165.625    21509176.418
        47.500          44.500
 133649594.599 5 104142656.12742                  25432670.414    25432677.223
        33.800          17.800
 120429607.574 6  93841302.43344                  22916974.727    22916984.875
        41.400          24.900
 128017019.112 5  99753632.18343                  24360831.195    24360845.859
        35.000          23.000
 25  3 19  1  3  0.0000000  0 10G29G05G20G13G23G11G15G07G18G30
 111084971.138 7  86559817.32347                  21138753.633    21138762.902
        47.800          46.700
 107095736.635 8  83451365.38048                  20379600.180    20379608.043
        49.800          50.800
 116523657.060 7  90797753.84945                  22173672.086    22173681.004
        45.900          31.800
 107624034.373 8  83862939.32546                  20480136.703    20480144.684
        50.700          40.500
 128652226.734 5                                  24481706.961
        34.500
 125621701.224 6  97887120.13643                  23904977.984    23904989.598
        40.900          22.800
 112936378.546 7  88002467.15147                  21491041.352    21491051.324
        47.900          44.500
 133669731.411 5 104158347.14742                  25436504.516    25436508.570
        34.600          17.400
 120340206.094 6  93771639.07444                  22899962.484    22899971.930
        41.000          25.600
 127991631.119 5  99733849.45143                  24356000.828    24356014.316
        35.800          23.800
 25  3 19  1  3 30.0000000  0 10G29G05G20G13G23G11G15G07G18G30
 111113603.282 7  86582128.13447                  21144202.156    21144211.777
        47.900          46.700
 107125027.592 8  83474189.46548                  20385174.398    20385182.027
        50.700          50.800
 116596672.861 7  90854649.26645                  22187566.969    22187575.535
        46.000          31.300
 107584148.533 8  83831859.51246                  20472546.445    20472554.719
        50.300          39.600
 128562039.306 5 100178274.03952                  24464543.820    24464558.660
        35.400          16.300
 125715346.079 6  97960090.04843                  23922797.844    23922809.750
        39.500          22.200
 112841507.736 7  87928541.98247                  21472987.945    21472997.625
        47.800          44.900
 133690321.420 6 104174391.37843                  25440424.016    25440427.250
        37.100          19.600
 120250944.063 6  93702084.43744                  22882975.867    22882985.664
        41.700          24.000
 127966706.685 6  99714427.90944                  24351257.984    24351271.355
        36.900          26.200
 25  3 19  1  4  0.0000000  0 10G29G05G20G13G23G11G15G07G18G30
 111142845.641 8  86604914.42347                  21149766.234    21149776.266
        49.000          47.200
 107154664.426 8  83497283.13648                  20390813.695    20390821.969
        50.500          50.200
 116669848.664 7  90911669.34645                  22201490.891    22201499.926
        45.200          32.300
 107544887.960 8  83801266.91946                  20465075.008    20465083.457
        50.100          39.800
 128471942.042 5 100108068.58242                  24447397.391    24447413.344
        35.000          13.900
 125809168.508 6  98033198.31643                  23940651.422    23940663.563
        38.500          23.000
 112747014.291 7  87854910.85747                  21455006.266    21455016.004
        47.800          44.600
 133711365.029 5 104190789.08242                  25444424.617    25444431.836
        34.800          17.400
 120161823.196 7  93632639.60744                  22866016.063    22866026.328
        42.000          24.800
 127942247.504 6  99695368.95444                  24346602.281    24346616.652
        36.900          26.400
 25  3 19  1  4 30.0000000  0 10G29G05G20G13G23G11G15G07G18G30
 111172696.774 8  86628175.08247                  21155447.180    21155455.805
        49.200          47.800
 107184645.703 8  83520645.19348                  20396518.766    20396526.746
        50.600          50.400
 116743183.768 7  90968813.55345                  22215446.469    22215455.680
        45.100          30.900
 107506254.192 8  83771162.74846                  20457723.609    20457731.355
        49.900          39.700
 128381935.25915 100037933.70552                  24430270.664    24430285.797
        35.200          15.600
 125903167.433 6  98106444.09243                  23958538.711    23958551.203
        39.800          22.800
 112652900.656 8  87781575.69847                  21437097.453    21437107.133
        48.500          44.900
 133732861.383 5 104207539.45543                  25448515.578    25448523.793
        35.200          20.400
 120072845.984 6  93563306.91944                  22849084.531    22849094.621
        40.900          25.300
 127918255.046 6  99676673.65444                  24342038.273    24342050.648
        37.100          26.400
 25  3 19  1  5  0.0000000  0 10G29G05G20G13G23G11G15G07G18G30
 111203156.150 8  86651909.65947                  21161242.930    21161252.492
        49.500          47.100
 107214971.349 8  83544275.61648                  20402289.648    20402297.805
        50.600          50.200
 116816677.992 7  91026081.76945                  22229432.344    22229441.379
        45.600          31.500
 107468248.346 8  83741547.86146                  20450491.305    20450499.285
        50.500          40.500
 128292020.03216  99967870.17652                  24413163.328    24413175.293
        36.900          15.600
 125997342.388 6  98179827.05444                  23976459.578    23976472.012
        40.200          24.700
 112559169.394 8  87708538.47647                  21419260.219    21419270.309
        48.100          44.500
 133754810.36615 104224642.69252                  25452690.180    25452700.738
        31.800          17.400
 119984013.926 6  93494087.27444                  22832179.742    22832190.125
        41.500          25.600
 127894731.195 6  99658343.50344                  24337561.516    24337573.949
        38.100          25.600
 25  3 19  1  5 30.0000000  0 10G29G05G20G13G23G11G15G07G18G30
 111234222.316 8  86676117.08247                  21167154.656    21167164.629
        49.300          47.200
 107245638.819 8  83568172.36348                  20408125.477    20408133.574
        50.700          50.300
 116890329.725 7  91083472.71245                  22243447.961    22243456.879
        45.500          31.200
 107430871.537 8  83712423.14246                  20443378.859    20443387.191
        50.400          40.500
 128202196.133 5  99897877.69242                  24396068.016    24396081.328
        34.300          14.800
 126091691.805 6  98253345.94343                  23994413.063    23994426.551
        39.600          22.600
 112465822.254 8  87635800.56347                  21401497.500    21401506.418
        48.200          45.400
 133777211.21615 104242098.02953                  25456954.438    25456962.887
        33.200          19.300
 119895328.453 6  93424981.85943                  22815303.953    22815313.457
        41.800          23.500
 127871676.570 6  99640379.00444                  24333172.250    24333186.621
        37.100          25.100
 25  3 19  1  6  0.0000000  0 10G29G05G20G13G23G11G15G07G18G30
 111265894.793 8  86700796.95547                  21173182.469    21173191.270
        49.100          47.500
 107276649.155 8  83592336.27248                  20414026.078    20414034.820
        49.400          50.300
 116964138.759 7  91140986.25345                  22257492.227    22257502.141
        45.200          30.700
 107394125.329 8  83683789.79746                  20436386.172    20436394.680
        49.800          39.800
 128112464.741 5  99827957.31742                  24378993.195    24379005.863
        33.800          14.800
 126186215.542 6  98327000.73144                  24012400.430    24012413.449
        39.000          25.200
 112372862.470 8  87563364.48747                  21383807.578    21383817.199
        48.600          45.300
 133800064.203 5 104259905.67943                  25461305.102    25461312.086
        35.200          19.000
 119806792.052 7  93355992.63143                  22798455.445    22798465.887
        42.500          23.900
 127849093.477 6  99622781.88744                  24328876.156    24328889.293
        37.900          25.300
 25  3 19  1  6 30.0000000  0 10G29G05G20G13G23G11G15G07G18G30
 111298171.757 7  86725947.84247                  21179324.320    21179333.121
        47.000          47.300
 107307999.470 8  83616765.12948                  20419992.359    20420000.691
        49.000          50.200
 117038103.649 7  91198621.22545                  22271567.273    22271577.480
        45.200          30.600
 107358010.305 8  83655648.28546                  20429513.453    20429522.313
        49.700          40.000
 128022825.652 5  99758108.97442                  24361933.992    24361947.891
        33.700          16.900
 126280911.791 6  98400789.91643                  24030420.844    24030433.746
        39.900          22.900
 112280291.401 8  87491231.30147                  21366191.438    21366201.352
        48.000          44.900
 133823367.598 5 104278064.21443                  25465737.594    25465746.160
        33.300          19.000
 119718405.594 6  93287120.22544                  22781636.883    22781646.211
        41.800          24.900
 127826982.387 6  99605552.59443                  24324668.086    24324680.578
        37.600          23.900
 25  3 19  1  7  0.0000000  0 10G29G05G20G13G23G11G15G07G18G30
 111331052.697 8  86751569.35447                  21185581.266    21185590.711
        49.200          47.800
 107339690.061 8  83641459.18548                  20426022.516    20426030.965
        50.600          50.200
 117112224.177 7  91256377.45244                  22285671.641    22285681.672
        45.300          29.800
 107322528.408 8  83628000.11346                  20422761.414    20422769.863
        49.900          40.500
 127933279.900 5  99688333.24842                  24344892.227    24344908.121
        32.200          16.300
 126375780.154 6  98474713.22343                  24048473.984    24048486.711
        40.300          23.300
 112188112.434 8  87419403.65547                  21348651.086    21348660.297
        49.000          45.500
 133847121.77715 104296574.00053                  25470256.938    25470267.086
        34.100          19.300
 119630171.551 7  93218366.55644                  22764845.953    22764855.574
        42.300          24.700
 127805345.241 6  99588692.63644                  24320551.180    24320563.613
        38.900          26.800
 25  3 19  1  7 30.0000000  0 10G29G05G20G13G23G11G15G07G18G30
 111364536.151 8  86777660.37547                  21191952.773    21191961.867
        49.900          47.500
 107371718.846 8  83666416.72848                  20432117.609    20432126.059
        50.100          50.400
 117186499.182 7  91314254.07245                  22299806.852    22299815.535
        45.300          30.500
 107287680.397 8  83600845.87846                  20416129.828    20416138.453
        50.000          40.100
 127843827.92015                                  24327870.391
        31.300
 126470819.252 6  98548769.51944                  24066560.813    24066571.605
        40.900          25.800
 112096326.706 8  87347882.42847                  21331184.453    21331193.898
        48.000          45.000
 133871325.864 5 104315434.40343                  25474865.891    25474873.227
        35.400          20.400
 119542091.213 6  93149732.70344                  22748085.031    22748094.066
        41.700          25.800
 127784182.999 6  99572202.72444                  24316525.070    24316537.152
        39.600          28.900
 25  3 19  1  8  0.0000000  0 10G29G05G20G13G23G11G15G07G18G30
 111398620.440 7  86804219.57047                  21198439.039    21198447.898
        47.400          47.300
 107404084.550 8  83691636.74048                  20438276.445    20438284.953
        48.100          50.300
 117260927.316 7  91372250.01145                  22313970.398    22313979.316
        45.600          31.000
 107253466.623 8  83574185.85446                  20409619.477    20409627.516
        48.600          40.800
 127754468.456 5  99549000.08252                  24310865.945    24310881.078
        31.900          16.900
 126566027.721 6  98622957.84344                  24084677.742    24084689.766
        41.300          25.800
 112004936.429 7  87276669.33847                  21313793.461    21313802.496
        46.800          45.400
 133895978.529 5 104334644.31643                  25479558.539    25479564.176
        33.600          19.600
 119454165.905 7  93081219.53744                  22731353.203    22731362.707
        42.700          25.600
 127763496.532 6  99556083.48144                  24312588.531    24312599.793
        40.900          29.300
 25  3 19  1  8 30.0000000  0 10G29G05G20G13G23G11G15G07G18G30
 111433304.954 7  86831246.45247                  21205039.352    21205048.270
        47.600          47.900
 107436787.050 8  83717119.24548                  20444499.844    20444507.941
        48.000          50.100
 117335508.744 7  91430365.38045                  22328163.352    22328171.098
        45.800          30.900
 107219888.872 8  83548021.42146                  20403230.086    20403237.656
        50.200          40.300
 127665204.09915  99479443.70552                  24293880.227    24293894.305
        33.000          16.300
 126661405.096 6  98697277.75843                  24102827.531    24102839.730
        40.100          22.600
 111913944.305 8  87205766.50447                  21296477.813    21296486.965
        48.000          45.400
 133921079.886 5 104354203.77843                  25484331.961    25484341.758
        31.500          19.300
 119366398.184 7  93012829.23744                  22714651.508    22714661.129
        42.100          26.100
 127743287.696 6  99540336.48344                  24308742.477    24308754.559
        39.700          29.000
 25  3 19  1  9  0.0000000  0 10G29G05G20G13G23G11G15G07G18G30
 111468588.552 8  86858740.17247                  21211753.734    21211762.652
        50.300          47.300
 107469825.532 8  83742863.60748                  20450786.516    20450794.965
        49.800          49.900
 117410242.300 7  91488599.31045                  22342384.133    22342392.348
        45.800          31.000
 107186948.494 8  83522353.65846                  20396961.547    20396969.938
        49.300          40.800
 127576035.30915                                  24276912.320
        31.800
 126756950.635 6  98771728.74644                  24121009.273    24121020.945
        41.200          25.000
 111823352.768 7  87135175.81647                  21279238.742    21279248.305
        47.400          44.800
 133946629.36715 104374112.41553                  25489194.250    25489202.992
        30.700          18.300
 119278790.040 7  92944563.30044                  22697979.727    22697989.348
        42.700          26.900
 127723557.888 6  99524962.73044                  24304986.750    24304999.770
        39.200          28.000
 25  3 19  1  9 30.0000000  0 10G29G05G20G13G23G11G15G07G18G30
 111504470.283 8  86886699.96647                  21218581.852    21218590.770
        50.500          47.300
 107503198.659 8  83768868.71548                  20457137.289    20457145.035
        49.800          50.000
 117485127.683 7  91546951.53345                  22356634.734    22356642.480
        46.000          31.100
 107154646.313 8  83497183.18146                  20390814.641    20390822.270
        49.600          40.600
 127486961.208 5  99340553.63852                  24259961.008    24259975.320
        30.700          17.400
 126852663.255 6  98846309.87044                  24139223.070    24139234.039
        41.400          24.300
 111733164.302 7  87064899.22247                  21262076.227    21262085.672
        46.500          44.700
 133972626.415 5 104394369.65643                  25494141.031    25494149.539
        32.300          18.600
 119191343.207 6  92876423.05244                  22681339.313    22681348.699
        40.900          26.900
 127704308.370 6  99509963.26444                  24301325.086    24301337.402
        40.200          28.900
 25  3 19  1 10  0.0000000  0 10G29G05G20G13G23G11G15G07G18G30
 111540948.422 7  86915124.50947                  21225523.703    21225532.094
        47.800          47.900
 107536905.503 8  83795133.88148                  20463551.352    20463559.508
        48.200          50.200
 117560163.486 7  91605420.96744                  22370913.570    22370921.727
        45.800          29.900
 107122983.248 8  83472510.71846                  20384789.188    20384797.402
        50.400          40.400
 127397983.56415  99271220.71452                  24243027.484    24243043.320
        31.300          15.600
 126948541.808 6  98921020.32543                  24157468.570    24157480.477
        40.800          23.800
 111643381.012 7  86994938.33047                  21244990.625    21245000.363
        47.300          44.700
 133999070.531 5 104414975.27842                  25499173.938    25499180.629
        33.400          17.400
 119104059.219 6  92808409.68244                  22664728.797    22664739.180
        40.300          26.900
 127685540.164 6  99495338.80744                  24297752.477    24297765.379
        40.100          29.600
 25  3 19  1 10 30.0000000  0 10G29G05G20G13G23G11G15G07G18G30
 111578021.568 8  86944012.66047                  21232577.922    21232586.605
        49.800          47.100
 107570945.078 8  83821658.22848                  20470028.781    20470037.113
        50.800          50.500
 117635349.182 7  91664007.19245                  22385220.703    22385228.742
        45.200          30.700
 107091960.317 8  83448337.06346                  20378885.852    20378893.246
        49.800          40.500
 127309102.476 5  99201963.04442                  24226115.430    24226130.035
        30.700          15.600
 127044585.369 6  98995859.37644                  24175744.883    24175756.379
        41.500          24.100
 111554004.984 7  86925294.78847                  21227983.156    21227992.367
        46.300          44.500
 134025961.05715 104435928.80452                  25504290.102    25504297.438
        31.500          16.900
 119016940.138 6  92740524.81944                  22648151.328    22648161.066
        40.800          26.400
 127667254.486 6  99481090.31544                  24294272.422    24294285.266
        39.600          28.100
 25  3 19  1 11  0.0000000  0 10G29G05G20G13G23G11G15G07G18G30
 111615688.569 8  86973363.58847                  21239745.531    21239754.742
        49.600          47.400
 107605315.705 8  83848440.54948                  20476569.492    20476577.883
        49.800          49.900
 117710683.878 7  91722709.55144                  22399555.891    22399564.574
        45.300          29.700
 107061578.562 8  83424663.01346                  20373103.922    20373112.254
        49.800          40.400
 127220318.58215                                  24209220.031
        31.600
 127140792.802 6  99070826.10744                  24194053.906    24194064.465
        41.100          25.800
 111465038.260 7  86855970.18047                  21211053.453    21211062.547
        47.600          45.100
 134053297.139 4 104457229.60742                  25509491.172    25509501.496
        29.600          16.300
 118929987.481 6  92672769.56044                  22631605.047    22631613.555
        41.000          26.500
 127649452.503 6  99467218.74144                  24290886.461    24290897.605
        40.600          29.700
 25  3 19  1 11 30.0000000  0 10G29G05G20G13G23G11G15G07G18G30
 111653947.972 8  87003176.11147                  21247025.984    21247035.195
        49.300          47.100
 107640017.205 8  83875480.67248                  20483172.898    20483181.055
        49.300          50.200
 117786166.889 7  91781527.45945                  22413920.617    22413928.891
        45.100          30.400
 107031838.524 8  83401489.01046                  20367444.703    20367452.566
        50.100          40.600
 127131630.99814  99063627.13052                  24192338.367    24192351.152
        28.900          14.800
 127237163.117 6  99145919.71844                  24212391.063    24212403.438
        40.900          24.100
 111376483.071 7  86786966.25847                  21194201.781    21194210.875
        47.000          45.500
 134081078.063 5 104478877.02342                  25514777.266    25514787.824
        30.500          17.400
 118843203.496 6  92605145.87944                  22615090.125    22615098.633
        41.100          26.700
 127632135.273 6  99453724.87044                  24287588.484    24287602.148
        39.100          29.000
 25  3 19  1 12  0.0000000  0 10G29G05G20G13G23G11G15G07G18G30
 111692798.675 8  87033449.38947                  21254419.086    21254428.063
        49.700          46.800
 107675048.296 8  83902777.70048                  20489838.742    20489847.367
        49.900          50.300
 117861797.476 7  91840460.37544                  22428311.594    22428320.863
        45.100          29.900
 107002741.576 8  83378816.11446                  20361908.117    20361916.039
        50.500          40.900
 127043041.88415  98994596.95552                  24175482.609    24175496.215
        32.000          14.800
 127333695.467 6  99221139.61643                  24230759.703    24230773.016
        39.400          23.000
 111288342.060 7  86718285.06947                  21177428.633    21177438.254
        47.000          44.600
 134109303.27114 104500870.69652                  25520148.414    25520157.566
        29.100          16.300
 118756589.867 7  92537654.87044                  22598607.578    22598617.023
        42.000          26.800
 127615304.327 6  99440609.91444                  24284386.117    24284398.668
        38.300          27.200
 25  3 19  1 12 30.0000000  0 10G29G05G20G13G23G11G15G07G18G30
 111732239.634 8  87064182.60747                  21261924.375    21261933.410
        48.900          46.800
 107710408.330 8  83930330.97548                  20496567.945    20496575.691
        48.800          50.500
 117937575.505 7  91899508.15345                  22442732.242    22442740.750
        45.300          30.200
 106974288.939 8  83356645.27246                  20356493.586    20356501.273
        50.200          40.800
 126954551.50315  98925643.72052                  24158643.383    24158658.223
        31.200          16.300
 127430389.115 6  99296485.15743                  24249160.156    24249172.238
        40.400          22.200
 111200617.543 8  86649928.39947                  21160735.297    21160744.508
        48.000          45.500
 134137972.62014 104523210.39252                  25525603.008    25525613.684
        27.600          13.900
 118670148.806 6  92470298.27044                  22582158.164    22582167.844
        39.700          25.800
 127598961.060 6  99427875.04244                  24281276.906    24281288.637
        39.000          27.500
 25  3 19  1 13  0.0000000  0 10G29G05G20G13G23G11G15G07G18G30
 111772268.739 8  87095374.10447                  21269541.789    21269550.824
        49.900          46.600
 107746095.732 8  83958139.31948                  20503359.422    20503367.051
        49.700          49.900
 118013499.555 7  91958669.74044                  22457180.336    22457188.668
        45.900          29.200
 106946480.424 8  83334976.33946                  20351201.320    20351209.359
        49.700          40.700
 126866160.27915                                  24141823.336
        30.500
 127527242.529 6  99371955.21844                  24267591.063    24267603.262
        40.300          24.100
 111113311.129 7  86581897.53947                  21144121.484    21144130.871
        46.700          45.600
 134167084.80115 104545895.29852                  25531143.414    25531153.973
        30.800          15.600
 118583881.698 6  92403077.23244                  22565741.781    22565752.047
        40.100          26.700
 127583105.940 6  99415520.49544                  24278260.313    24278271.047
        39.000          29.100
 25  3 19  1 13 30.0000000  0 10G29G05G20G13G23G11G15G07G18G30
 111812884.803 8  87127022.95447                  21277270.484    21277279.695
        49.900          46.700
 107782109.714 8  83986202.21348                  20510212.398    20510220.496
        49.200          49.900
 118089568.913 7  92017944.52645                  22471655.344    22471664.730
        45.600          30.200
 106919317.498 8  83313810.47646                  20346032.563    20346040.367
        50.200          40.400
 126777867.88415                                  24125019.742
        30.500
 127624255.016 6  99447549.24044                  24286052.281    24286064.539
        40.200          24.300
 111026425.389 7  86514194.45947                  21127587.000    21127596.445
        47.300          45.500
 134196639.31015 104568924.76052                  25536767.711    25536777.449
        31.500          16.900
 118497790.448 6  92335993.12044                  22549359.547    22549370.047
        40.900          28.900
 127567740.277 6  99403547.30744                  24275333.992    24275347.891
        38.400          28.700
 25  3 19  1 14  0.0000000  0 10G29G05G20G13G23G11G15G07G18G30
 111854085.966 8  87159127.75447                  21285111.266    21285120.477
        50.200          47.100
 107818448.343 8  84014518.05648                  20517127.195    20517135.234
        49.100          50.000
 118165782.563 7  92077331.76445                  22486159.008    22486167.809
        45.000          30.500
 106892800.469 8  83293147.90346                  20340986.367    20340994.172
        49.400          40.800
 126689674.160 5  98719246.65752                  24108238.156    24108254.461
        31.300          17.800
 127721425.007 6  99523266.06043                  24304542.734    24304554.816
        39.200          22.600
 110939961.878 7  86446820.40847                  21111134.008    21111143.570
        47.800          45.600
 134226634.390 5 104592297.50043                  25542477.430    25542485.410
        32.800          19.300
 118411876.623 7  92269047.26944                  22533010.719    22533020.984
        42.600          28.600
 127552864.648 6  99391955.99445                  24272505.094    24272518.406
        38.600          30.200
 25  3 19  1 14 30.0000000  0 10G29G05G20G13G23G11G15G07G18G30
 111895870.700 8  87191687.29347                  21293062.531    21293071.508
        49.500          46.600
 107855111.514 8  84043086.84448                  20524104.125    20524111.871
        49.100          50.300
 118242139.975 7  92136831.01744                  22500688.875    22500698.086
        45.100          29.900
 106866929.999 8  83272989.14346                  20336062.969    20336070.949
        49.800          40.900
 126601580.786 5  98650602.75742                  24091476.117    24091491.133
        31.600          16.900
 127818751.606 6  99599104.90143                  24323063.375    24323076.570
        38.900          22.600
 110853922.931 8  86379777.17747                  21094761.680    21094770.832
        48.300          45.800
 134257069.600 5 104616013.20943                  25548270.719    25548277.234
        33.800          19.000
 118326142.577 7  92202241.65144                  22516697.367    22516705.699
        43.000          28.300
 127538480.318 6  99380747.45045                  24269768.234    24269779.906
        39.800          30.100
 25  3 19  1 15  0.0000000  0 10G29G05G20G13G23G11G15G07G18G30
 111938237.647 8  87224700.50947                  21301124.656    21301133.574
        50.100          46.500
 107892097.511 8  84071907.14548                  20531142.078    20531149.883
        48.200          49.800
 118318639.753 7  92196441.19444                  22515246.156    22515255.719
        44.400          28.900
 106841706.653 8  83253334.64746                  20331263.688    20331271.316
        49.500          41.300
 126513587.551 5  98582036.86842                  24074730.469    24074745.016
        33.300          15.600
 127916233.402 6  99675064.67843                  24341613.125    24341626.555
        38.400          22.500
 110768310.359 7  86313066.20547                  21078469.602    21078478.578
        47.400          46.400
 134287944.038 5 104640071.09143                  25554145.969    25554152.309
        34.200          18.600
 118240589.446 7  92135576.88944                  22500416.414    22500425.508
        42.100          26.900
 127524588.059 6  99369922.38244                  24267124.031    24267136.172
        38.800          29.300
 25  3 19  1 15 30.0000000  0 10G29G05G20G13G23G11G15G07G18G30
 111981185.848 8  87258166.63847                  21309297.625    21309306.133
        49.500          46.600
 107929406.571 8  84100979.20148                  20538241.648    20538249.395
        49.000          49.900
 118395281.917 7  92256162.33345                  22529830.820    22529839.914
        43.900          30.200
 106817132.091 8  83234185.68246                  20326586.766    20326594.863
        49.500          40.500
 126425695.647 5  98513550.00042                  24058005.680    24058019.578
        32.800          16.900
 128013870.106 6  99751145.13543                  24360193.172    24360206.426
        38.600          21.800
 110683127.180 7  86246689.81247                  21062259.742    21062269.070
        47.600          45.600
 134319257.683 5 104664471.20943                  25560103.633    25560111.613
        34.600          20.400
 118155220.242 6  92069055.51444                  22484170.648    22484180.211
        40.700          27.700
 127511189.561 6  99359482.09444                  24264573.766    24264586.082
        38.500          27.700
 25  3 19  1 16  0.0000000  0 10G29G05G20G13G23G11G15G07G18G30
 112024713.391 8  87292084.20447                  21317580.258    21317589.820
        48.900          46.000
 107967037.101 8  84130301.69348                  20545402.344    20545410.676
        48.300          49.600
 118472066.164 7  92315994.17144                  22544442.688    22544451.488
        44.200          29.100
 106793206.945 8  83215542.75946                  20322033.984    20322041.848
        49.500          40.800
 126337905.484 5  98445142.34742                  24041300.750    24041313.066
        34.100          17.800
 128111660.843 6  99827345.64443                  24378802.773    24378814.738
        39.500          23.000
 110598375.315 8  86180649.50647                  21046131.984    21046141.078
        48.100          46.100
 134351009.573 5 104689212.90843                  25566145.539    25566154.340
        34.000          19.900
 118070036.785 6  92002678.93744                  22467960.609    22467970.699
        40.800          26.500
 127498285.953 6  99349427.40344                  24262118.539    24262131.383
        39.200          29.400
 25  3 19  1 16 30.0000000  0 10G29G05G20G13G23G11G15G07G18G30
 112068818.296 8  87326451.65947                  21325973.727    21325982.703
        49.200          46.200
 108004987.674 8  84159873.58548                  20552624.430    20552631.941
        48.800          49.900
 118548990.864 7  92375935.46144                  22559080.703    22559089.504
        43.400          29.300
 106769930.911 8  83197405.63346                  20317605.281    20317612.617
        49.600          41.400
 126250216.887 5  98376813.81642                  24024612.570    24024626.117
        32.900          16.900
 128209603.720 6  99903664.65143                  24397441.180    24397453.438
        39.700          22.900
 110514056.444 7  86114946.58647                  21030086.633    21030095.434
        47.800          46.100
 134383198.432 5 104714295.02843                  25572269.469    25572278.973
        33.200          19.300
 117985040.380 6  91936448.10344                  22451786.094    22451795.773
        40.600          26.700
 127485877.624 6  99339758.62244                  24259756.859    24259769.527
        38.600          28.500
 25  3 19  1 17  0.0000000  0 10G29G05G20G13G23G11G15G07G18G30
 112113499.597 8  87361268.26047                  21334475.664    21334484.992
        49.300          45.800
 108043257.957 8  84189694.53348                  20559906.805    20559914.727
        48.900          49.800
 118626055.961 7  92435986.14744                  22573745.688    22573754.781
        43.700          29.800
 106747305.347 8  83179775.35246                  20313299.586    20313307.391
        50.300          41.200
 126162631.015 5  98308565.39742                  24007945.195    24007958.508
        34.800          15.600
 128307698.414 6  99980101.95043                  24416108.250    24416119.863
        38.300          22.800
 110430173.281 7  86049583.18647                  21014124.641    21014133.441
        47.400          46.300
 134415823.845 6 104739717.33543                  25578480.164    25578486.445
        36.000          19.900
 117900233.476 6  91870364.94544                  22435648.852    22435657.652
        41.200          28.500
 127473965.920 6  99330476.83945                  24257490.781    24257502.102
        38.700          30.500
 25  3 19  1 17 30.0000000  0 10G29G05G20G13G23G11G15G07G18G30
 112158755.474 8  87396532.58447                  21343087.648    21343096.918
        48.800          46.300
 108081846.278 8  84219763.36648                  20567249.852    20567258.184
        49.900          49.300
 118703260.316 7  92496145.35244                  22588438.656    22588446.168
        45.200          29.400
 106725330.489 8  83162652.12346                  20309117.945    20309125.691
        50.700          41.500
 126075147.75915  98240396.88152                  23991297.430    23991311.035
        33.700          17.400
 128405943.462 6 100056656.38643                  24434803.023    24434815.398
        38.300          20.900
 110346727.574 8  85984560.64747                  20998244.992    20998253.793
        48.900          46.200
 134448884.362 5 104765478.45743                  25584771.750    25584777.387
        35.300          19.300
 117815617.455 7  91804430.45544                  22419546.656    22419555.574
        42.100          29.500
 127462551.508 6  99321582.56744                  24255318.273    24255331.117
        38.000          28.900
 25  3 19  1 18  0.0000000  0 10G29G05G20G13G23G11G15G07G18G30
 112204584.440 8  87432243.46147                  21351808.266    21351817.770
        48.300          45.000
 108120751.834 8  84250079.39548                  20574653.516    20574661.613
        49.600          49.200
 118780603.259 7  92556412.54444                  22603155.930    22603163.852
        45.200          29.900
 106704007.049 8  83146036.49946                  20305059.766    20305067.629
        50.300          41.100
 125987768.000 5  98172308.95142                  23974668.852    23974683.047
        35.000          16.300
 128504337.880 6 100133327.24143                  24453526.727    24453538.691
        37.400          20.900
 110263721.444 8  85919880.63647                  20982449.313    20982457.996
        48.100          46.000
 134482379.258 5 104791578.18843                  25591146.133    25591151.770
        35.500          19.900
 117731194.760 7  91738646.65044                  22403480.125    22403490.625
        42.200          28.500
 127451635.353 6  99313076.52544                  24253241.758    24253253.254
        37.500          29.100
 25  3 19  1 18 30.0000000  0 10G29G05G20G13G23G11G15G07G18G30
 112250984.764 7  87468399.55447                  21360638.484    21360647.637
        47.700          45.400
 108159973.853 8  84280642.00448                  20582117.391    20582125.020
        49.800          49.600
 118858084.237 7  92616787.29245                  22617899.977    22617908.074
        44.400          30.200
 106683335.710 8  83129929.00446                  20301126.563    20301134.016
        50.600          41.500
 125900491.995 5  98104301.93942                  23958060.922    23958075.117
        35.000          16.300
 128602880.807 5 100210113.78843                  24472278.680    24472291.348
        35.900          20.400
 110181157.018 7  85855544.80647                  20966737.266    20966747.180
        47.600          46.300
 134516308.495 5 104818016.60443                  25597600.047    25597608.730
        33.500          19.300
 117646967.146 7  91673014.85244                  22387453.047    22387462.551
        42.700          29.200
 127441218.489 5  99304959.51744                  24251257.516    24251271.238
        35.700          27.200
 25  3 19  1 19  0.0000000  0 10G29G05G20G13G23G11G15G07G18G30
 112297954.763 8  87504999.55647                  21369576.492    21369585.586
        48.500          45.300
 108199511.722 8  84311450.72348                  20589640.969    20589648.773
        49.600          49.700
 118935702.707 7  92677269.17544                  22632670.313    22632678.996
        45.200          29.400
 106663317.300 8  83114330.29046                  20297316.758    20297325.090
        49.800          41.100
 125813320.655 5  98036376.50742                  23941473.977    23941486.469
        35.500          16.300
 128701571.337 6 100287015.36543                  24491060.133    24491072.215
        36.000          19.300
 110099036.618 8  85791554.96547                  20951110.664    20951119.758
        48.000          47.500
 134550671.023 6 104844792.62743                  25604141.102    25604147.559
        36.400          19.300
 117562937.043 7  91607536.94244                  22371461.609    22371471.992
        42.500          29.000
 127431302.196 5  99297232.58644                  24249369.031    24249383.520
        35.200          24.600
 25  3 19  1 19 30.0000000  0 10G29G05G20G13G23G11G15G07G18G30
 112345492.771 8  87542042.15547                  21378622.508    21378631.660
        49.000          45.300
 108239364.351 8  84342504.67348                  20597224.398    20597232.027
        48.900          49.100
 119013457.927 7  92737857.61244                  22647466.672    22647474.535
        44.200          29.700
 106643952.093 8  83099240.56446                  20293631.930    20293639.969
        49.700          41.500
 125726254.335 5  97968532.76742                  23924904.398    23924918.477
        34.300          14.800
 128800408.395 5 100364031.07543                  24509866.914    24509880.109
        34.000          19.000
 110017361.982 7  85727912.47847                  20935568.195    20935577.465
        47.800          47.000
 134585464.999 5 104871904.63443                  25610762.586    25610769.746
        35.700          19.300
 117479106.112 6  91542214.21944                  22355509.656    22355519.277
        41.000          28.500
 127421887.159 6  99289896.29844                  24247578.438    24247591.926
        37.100          26.700
 25  3 19  1 20  0.0000000  0 10G29G05G20G13G23G11G15G07G18G30
 112393597.112 8  87579526.04947                  21387776.258    21387785.762
        48.400          45.300
 108279530.699 8  84373803.14348                  20604867.695    20604876.027
        48.900          49.500
 119091349.226 7  92798552.06944                  22662288.648    22662297.625
        44.900          29.400
 106625240.605 8  83084660.21246                  20290070.641    20290078.914
        49.200          41.100
 125639293.414 6  97900771.23042                  23908357.508    23908369.297
        36.500          14.800
 128899391.00615 100441160.23352                  24528703.297    24528715.906
        33.300          17.800
 109936135.532 8  85664619.23747                  20920111.711    20920120.512
        48.000          47.200
 134620690.060 6 104899352.53143                  25617465.438    25617472.363
        36.700          19.600
 117395476.336 6  91477048.18144                  22339595.664    22339605.051
        41.300          28.200
 127412974.277 5  99282951.31844                  24245880.719    24245895.676
        34.300          25.800
 25  3 19  1 20 30.0000000  0 10G29G05G20G13G23G11G15G07G18G30
 112442265.969 8  87617449.82747                  21397037.992    21397046.852
        48.600          45.400
 108320009.278 8  84405344.89048                  20612571.117    20612578.863
        49.200          49.500
 119169375.996 7  92859352.10044                  22677136.539    22677144.871
        43.500          28.600
 106607183.053 8  83070589.43546                  20286634.859    20286642.430
        49.700          41.000
 125552438.098 6  97833091.93942                  23891827.797    23891841.109
        36.100          16.300
 128998517.53015 100518401.48052                  24547564.227    24547578.832
        31.200          16.900
 109855358.807 8  85601676.41447                  20904740.078    20904749.348
        49.600          47.000
 134656345.268 5 104927135.81343                  25624251.711    25624257.992
        35.500          19.000
 117312049.678 7  91412040.51544                  22323718.758    22323729.316
        43.300          29.100
 127404563.855 6  99276397.78644                  24244282.055    24244295.191
        36.800          26.800
 25  3 19  1 21  0.0000000  0 10G29G05G20G13G23G11G15G07G18G30
 112491497.224 8  87655811.83047                  21406407.109    21406415.441
        48.600          46.100
 108360798.537 8  84437128.73348                  20620332.852    20620340.480
        48.800          49.100
 119247536.844 7  92920256.61744                  22692011.094    22692018.488
        43.800          29.400
 106589779.100 8  83057027.95446                  20283323.078    20283330.473
        49.500          40.300
 125465688.414 6  97765495.03542                  23875319.641    23875332.777
        36.000          16.300
 129097786.54315 100595753.81452                  24566456.109    24566469.422
        33.200          16.900
 109775033.453 8  85539085.30747                  20889454.445    20889463.539
        48.800          47.500
 134692429.050 5 104955253.12543                  25631116.352    25631123.688
        34.300          18.300
 117228827.355 6  91347192.01844                  22307882.492    22307892.699
        41.400          29.600
 127396656.360 6  99270236.13944                  24242777.422    24242789.855
        37.100          28.100
 25  3 19  1 21 30.0000000  0 10G29G05G20G13G23G11G15G07G18G30
 112541289.724 8  87694611.17147                  21415881.922    21415890.547
        48.800          45.200
 108401898.772 8  84469154.84748                  20628154.055    20628162.094
        48.800          49.500
 119325831.955 7  92981265.72844                  22706909.992    22706918.559
        44.100          28.400
 106573030.178 8  83043976.88146                  20280135.938    20280143.918
        49.300          41.000
 125379045.603 6  97697981.31143                  23858832.344    23858845.305
        36.800          18.600
 129197197.92415 100673217.08352                  24585372.508    24585387.816
        32.600          16.900
 109695162.388 8  85476848.19347                  20874255.805    20874264.488
        50.300          47.400
 134728941.028 5 104983703.99343                  25638065.992    25638072.156
        35.000          19.600
 117145812.204 7  91282504.93944                  22292086.305    22292094.988
        44.300          29.000
 127389253.328 6  99264467.56345                  24241369.938    24241381.375
        36.400          30.200
 25  3 19  1 22  0.0000000  0 10G29G05G20G13G23G11G15G07G18G30
 112591640.508 7  87733845.53047                  21425463.078    21425472.230
        47.900          45.300
 108443308.045 8  84501421.82248                  20636034.141    20636041.477
        48.700          49.200
 119404259.998 7  93042378.45344                  22721833.703    22721842.621
        43.500          28.200
 106556936.333 8  83031436.26346                  20277073.234    20277080.746
        48.600          41.100
 125292509.664 6  97630550.92542                  23842365.859    23842377.824
        36.600          16.900
 129296749.90215 100750789.93852                  24604317.930    24604331.594
        32.500          17.400
 109615746.816 8  85414966.00247                  20859142.859    20859152.012
        49.200          47.500
 134765879.754 5 105012487.37142                  25645093.836    25645101.172
        34.300          17.800
 117063005.927 7  91217980.63544                  22276327.750    22276337.898
        44.000          29.400
 127382355.242 6  99259092.47144                  24240055.859    24240069.465
        37.100          29.500
 25  3 19  1 22 30.0000000  0 10G29G05G20G13G23G11G15G07G18G30
 112642548.538 8  87773514.09647                  21435150.555    21435159.648
        48.800          45.800
 108485025.554 8  84533928.99548                  20643972.094    20643979.957
        49.400          48.800
 119482820.386 7  93103594.29144                  22736783.578    22736791.969
        42.900          27.400
 106541497.289 8  83019405.87346                  20274135.383    20274142.953
        49.500          40.400
 125206081.024 6  97563204.14043                  23825918.383    23825930.582
        38.000          18.600
 129396441.49515 100828471.54652                  24623289.734    24623302.227
        34.800          17.400
 109536788.865 8  85353440.38648                  20844118.375    20844127.117
        50.200          48.000
 134803244.567 5 105041602.79742                  25652204.969    25652211.602
        35.400          17.800
 116980410.458 7  91153620.63344                  22260610.750    22260620.078
        44.500          29.700
 127375962.563 6  99254111.18945                  24238840.969    24238852.641
        38.100          30.200
 25  3 19  1 23  0.0000000  0 10G29G05G20G13G23G11G15G07G18G30
 112694011.470 8  87813615.07247                  21444943.516    21444952.902
        48.100          45.600
 108527049.801 8  84566675.16448                  20651969.063    20651977.395
        50.200          48.500
 119561512.318 6  93164912.62244                  22751757.781    22751767.402
        41.800          27.400
 106526713.259 8  83007885.88146                  20271322.031    20271329.484
        50.300          41.300
 125119759.886 6  97495941.11843                  23809492.805    23809503.949
        38.700          19.900
 129496271.238 5 100906260.85842                  24642284.656    24642299.613
        32.300          16.900
 109458290.316 8  85292272.75447                  20829180.336    20829189.137
        51.200          47.700
 134841033.617 5 105071048.88742                  25659395.297    25659402.047
        35.000          16.300
 116898027.507 7  91089426.22044                  22244933.602    22244943.809
        44.700          29.500
 127370075.948 6  99249524.26344                  24237720.609    24237732.516
        38.300          29.600
 25  3 19  1 23 30.0000000  0 10G29G05G20G13G23G11G15G07G18G30
 112746027.812 8  87854147.27347                  21454841.844    21454851.230
        48.900          46.000
 108569380.652 8  84599660.27048                  20660024.773    20660032.695
        49.500          48.900
 119640335.517 7  93226333.25144                  22766757.516    22766766.258
        42.400          26.900
 106512585.377 8  82996877.17346                  20268633.266    20268640.836
        50.700          40.900
 125033547.320 6  97428762.71643                  23793085.820    23793098.371
        38.700          20.100
 129596238.782 5 100984157.50542                  24661309.867    24661323.590
        33.400          16.300
 109380253.439 8  85231464.85447                  20814330.484    20814339.051
        51.200          47.600
 134879246.362 6 105100824.99343                  25666667.711    25666674.227
        36.900          19.300
 116815859.484 7  91025399.23244                  22229297.477    22229307.156
        44.400          29.600
 127364696.615 6  99245332.62645                  24236696.430    24236708.980
        38.100          30.400
 25  3 19  1 24  0.0000000  0 10G29G05G20G13G23G11G15G07G18G30
 112798595.201 8  87895108.86347                  21464845.313    21464854.523
        49.600          45.900
 108612016.062 8  84632882.68348                  20668137.750    20668145.906
        49.600          48.700
 119719288.633 6  93287855.14444                  22781781.922    22781791.133
        41.900          27.900
 106499112.789 8  82986379.08146                  20266069.688    20266077.141
        50.200          41.100
 124947443.102 6  97361668.70543                  23776700.828    23776713.027
        38.500          19.600
 129696342.264 5 101062160.07642                  24680360.016    24680372.332
        33.800          15.600
 109302679.813 8  85171017.93447                  20799568.586    20799577.387
        50.400          47.600
 134917881.233 5 105130930.11143                  25674019.563    25674026.078
        34.400          19.300
 116733908.051 7  90961541.04545                  22213702.969    22213712.766
        44.500          30.400
 127359824.528 6  99241536.28445                  24235769.273    24235781.883
        37.300          31.000
 25  3 19  1 24 30.0000000  0 10G29G05G20G13G23G11G15G07G18G30
 112851712.539 8  87936498.98147                  21474953.516    21474962.551
        49.200          46.500
 108654956.642 8  84666342.93548                  20676308.977    20676316.957
        50.200          48.800
 119798371.983 6  93349478.49144                  22796830.172    22796839.793
        41.800          26.800
 106486297.284 8  82976393.00246                  20263630.328    20263638.777
        49.900          40.600
 124861448.653 6  97294660.23043                  23760337.008    23760348.621
        40.200          20.100
 129796581.499 5 101140268.50142                  24699433.602    24699447.617
        34.300          16.900
 109225572.266 8  85110934.20947                  20784895.156    20784904.309
        50.500          47.500
 134956937.888 5 105161363.85542                  25681449.773    25681458.398
        33.000          17.400
 116652176.089 7  90897853.87745                  22198149.844    22198159.172
        44.600          30.700
 127355461.297 6  99238136.43945                  24234938.719    24234951.035
        37.500          30.500
 25  3 19  1 25  0.0000000  0 10G29G05G20G13G23G11G15G07G18G30
 112905377.183 8  87978315.56447                  21485165.063    21485174.508
        49.800          46.100
 108698199.803 8  84700038.92148                  20684538.172    20684545.859
        50.400          49.000
 119877584.190 6  93411202.24544                  22811904.094    22811914.066
        41.100          25.000
 106474137.836 8  82966918.14246                  20261317.250    20261324.762
        50.900          40.900
 124775563.612 6  97227737.03343                  23743993.336    23744005.066
        40.000          20.900
 129896954.626 5 101218481.18042                  24718535.758    24718547.957
        35.000          17.400
 109148931.818 8  85051214.46047                  20770311.109    20770319.676
        50.700          47.600
 134996414.888 5 105192125.03142                  25688961.703    25688970.387
        30.300          17.400
 116570664.703 7  90834338.54944                  22182639.031    22182648.301
        45.100          29.700
 127351606.881 6  99235133.09044                  24234206.289    24234217.023
        38.100          29.300
 25  3 19  1 25 30.0000000  0 10G29G05G20G13G23G11G15G07G18G30
 112959587.733 8  88020557.53247                  21495480.898    21495490.051
        49.100          46.600
 108741745.374 8  84733970.56548                  20692824.555    20692831.949
        50.200          48.300
 119956924.938 6  93473026.14044                  22827000.617    22827011.352
        40.600          25.200
 106462634.918 8  82957954.86546                  20259127.609    20259135.414
        51.300          41.000
 124689788.782 6  97160899.70943                  23727671.102    23727682.363
        40.600          22.000
 129997460.773 5 101296797.46842                  24737662.023    24737673.637
        34.800          16.900
 109072760.830 8  84991860.51547                  20755815.938    20755824.914
        50.700          47.900
 135036311.19815 105223213.01052                  25696555.258    25696561.422
        30.700          15.600
 116489376.343 7  90770996.96044                  22167169.586    22167179.383
        45.400          29.900
 127348262.152 6  99232526.89845                  24233569.359    24233580.621
        37.600          30.100
 25  3 19  1 26  0.0000000  0 10G29G05G20G13G23G11G15G07G18G30
 113014342.042 8  88063223.19547                  21505900.328    21505909.539
        49.400          46.100
 108785592.540 8  84768137.20848                  20701168.453    20701176.199
        50.200          49.100
 120036393.630 7  93534949.77143                  22842124.117    22842133.973
        42.500          23.200
 106451788.644 8  82949503.24846                  20257063.953    20257071.172
        51.200          41.500
 124604124.594 6  97094148.59143                  23711369.859    23711381.531
        41.200          22.600
 130098098.949 5 101375216.70142                  24756812.883    24756824.438
        35.500          15.600
 108997061.266 8  84932873.89847                  20741410.820    20741419.621
        50.000          46.900
 135076625.584 4 105254626.63242                  25704224.383    25704233.945
        28.900          14.800
 116408313.138 7  90707830.84944                  22151743.969    22151753.766
        45.300          29.700
 127345427.699 6  99230318.30044                  24233029.914    24233041.410
        38.400          29.800
 25  3 19  1 26 30.0000000  0 10G29G05G20G13G23G11G15G07G18G30
 113069638.257 8  88106311.11747                  21516423.203    21516432.004
        49.000          46.600
 108829740.353 8  84802538.05448                  20709569.164    20709577.203
        50.200          48.600
 120115989.605 7  93596972.56544                  22857271.359    22857280.980
        42.200          26.600
 106441599.386 8  82941563.59946                  20255125.102    20255132.496
        51.200          40.700
 124518571.660 6  97027484.14543                  23695089.039    23695100.828
        40.000          22.000
 130198868.090 5 101453738.01042                  24775986.320    24775999.867
        34.200          16.300
 108921834.964 8  84874256.05147                  20727095.539    20727104.750
        50.000          47.300
 135117357.620 5 105286365.94042                  25711976.750    25711985.727
        31.900          15.600
 116327477.223 7  90644841.85945                  22136360.773    22136371.508
        44.600          30.100
 127343104.210 6  99228507.83945                  24232588.594    24232598.918
        38.200          31.600
 25  3 19  1 27  0.0000000  0 10G29G05G20G13G23G11G15G07G18G30
 113125474.089 8  88149819.50647                  21527048.844    21527057.996
        50.200          47.200
 108874187.481 8  84837172.19548                  20718027.484    20718035.113
        50.200          49.100
 120195712.227 7  93659094.00244                  22872442.406    22872451.324
        42.300          24.700
 106432067.061 8  82934135.85246                  20253311.266    20253318.836
        50.800          40.900
 124433130.361 6  96960906.68243                  23678829.313    23678841.629
        39.900          22.300
 130299766.880 5 101532360.30642                  24795187.570    24795200.473
        33.700          15.600
 108847083.714 8  84816008.38147                  20712871.023    20712880.117
        49.700          46.900
 135158505.521 5 105318429.21942                  25719807.734    25719815.598
        31.900          16.900
 116246870.573 7  90582031.52244                  22121021.883    22121032.148
        44.900          29.800
 127341292.279 6  99227096.06245                  24232242.414    24232253.852
        37.200          30.500
 25  3 19  1 27 30.0000000  0 10G29G05G20G13G23G11G15G07G18G30
 113181847.426 8  88193746.73547                  21537776.523    21537785.441
        49.800          46.600
 108918932.803 8  84872038.63848                  20726541.992    20726550.090
        50.100          48.500
 120275560.319 6  93721313.23343                  22887636.234    22887645.621
        41.400          23.600
 106423191.093 8  82927219.53446                  20251622.172    20251629.977
        51.000          40.500
 124347800.864 6  96894416.33443                  23662591.680    23662604.172
        41.100          22.800
 130400794.177 5 101611082.67442                  24814413.180    24814426.375
        34.800          15.600
 108772808.892 8  84758131.97447                  20698736.383    20698746.063
        49.400          46.800
 135200067.874 5 105350815.40542                  25727717.078    25727725.410
        32.600          17.800
 116166494.946 7  90519401.18345                  22105727.086    22105736.590
        45.300          30.700
 127339992.063 6  99226082.98645                  24231996.391    24232007.125
        39.000          31.700
 25  3 19  1 28  0.0000000  0 10G29G05G20G13G23G11G15G07G18G30
 113238756.306 8  88238091.27147                  21548605.750    21548614.844
        50.300          46.900
 108963975.690 8  84907136.98848                  20735113.625    20735121.605
        50.800          48.800
 120355533.858 6  93783630.19843                  22902855.273    22902864.191
        41.200          23.300
 106414972.398 8  82920815.39246                  20250057.750    20250065.438
        50.800          40.900
 124262583.934 6  96828013.72643                  23646376.227    23646386.902
        41.400          22.200
 130501948.964 6 101689904.46942                  24833662.266    24833675.285
        36.200          15.600
 108699013.252 8  84700628.95347                  20684693.492    20684702.820
        49.300          46.900
 135242044.161 4 105383524.37542                  25735705.758    25735714.207
        29.400          17.400
 116086352.784 7  90456952.75745                  22090476.797    22090485.949
        45.900          30.700
 127339204.248 6  99225469.19845                  24231847.094    24231858.004
        38.600          32.000
 25  3 19  1 28 30.0000000  0 10G29G05G20G13G23G11G15G07G18G30
 113296198.530 8  88282851.39047                  21559536.094    21559545.480
        50.000          46.700
 109009315.008 8  84942466.31048                  20743740.961    20743749.176
        49.300          48.100
 120435631.859 6  93846044.18544                  22918097.148    22918106.242
        41.300          24.200
 106407410.495 8  82914923.02546                  20248618.797    20248626.191
        50.500          41.100
 124177479.753 6  96761698.99143                  23630180.039    23630191.418
        40.900          21.700
 130603229.857 5 101768824.48742                  24852934.969    24852949.398
        35.800          15.600
 108625697.624 8  84643499.94847                  20670742.313    20670751.172
        48.300          46.500
 135284432.62715 105416554.48552                  25743770.422    25743779.223
        30.500          15.600
 116006445.894 7  90394687.69745                  22075270.938    22075279.738
        46.000          31.000
 127338929.253 6  99225255.02044                  24231791.813    24231804.480
        37.400          29.700
 25  3 19  1 29  0.0000000  0 10G29G05G20G13G23G11G15G07G18G30
 113354172.263 8  88328025.70047                  21570568.031    21570577.652
        49.400          46.800
 109054949.599 8  84978025.68148                  20752425.734    20752433.656
        50.200          48.800
 120515854.096 6  93908554.93844                  22933363.727    22933371.707
        41.500          25.600
 106400505.373 8  82909542.43846                  20247305.063    20247312.340
        50.000          40.800
 124092488.892 6  96695472.47743                  23614005.664    23614018.566
        39.900          20.100
 130704636.001 5 101847842.11942                  24872231.859    24872245.641
        35.000          16.900
 108552864.310 8  84586746.74947                  20656882.375    20656891.410
        48.700          46.900
 135327231.98714                                  25751915.617
        28.000
 115926776.579 7  90332607.82545                  22060110.141    22060119.293
        46.000          31.300
 127339167.626 6  99225440.79345                  24231838.734    24231850.406
        38.900          31.500
 25  3 19  1 29 30.0000000  0 10G29G05G20G13G23G11G15G07G18G30
 113412675.591 8  88373612.67347                  21581701.336    21581710.488
        49.700          47.200
 109100879.221 8  85013815.00048                  20761165.727    20761173.121
        49.800          48.100
 120596199.840 6  93971161.91044                  22948653.016    22948661.816
        41.300          24.700
 106394257.112 8  82904673.69646                  20246116.000    20246123.453
        50.900          40.900
 124007612.207 6  96629335.00943                  23597855.313    23597865.461
        40.400          21.500
 130806166.407 6 101926956.51242                  24891551.945    24891565.844
        37.000          16.300
 108480515.435 8  84530371.06547                  20643115.117    20643123.449
        49.100          46.800
 135370441.93814 105483574.84052                  25760136.266    25760146.004
        28.600          15.600
 115847347.068 7  90270714.77345                  22044995.445    22045003.895
        46.200          31.600
 127339920.118 6  99226027.23544                  24231981.313    24231993.395
        37.300          29.800
 25  3 19  1 30  0.0000000  0 10G29G05G20G13G23G11G15G07G18G30
 113471706.027 8  88419610.38547                  21592934.133    21592943.578
        49.300          47.000
 109147102.525 8  85049833.17548                  20769961.758    20769969.328
        49.300          48.300
 120676668.006 6  94033864.33544                  22963965.313    22963973.996
        41.200          24.400
 106388665.143 8  82900316.34446                  20245051.938    20245058.805
        50.200          40.600
 123922849.560 6  96563286.34643                  23581726.023    23581736.582
        41.400          21.300
 130907819.458 6 102006166.51442                  24910897.156    24910910.762
        36.800          16.300
 108408652.371 8  84474373.95547                  20629440.391    20629448.195
        49.000          47.300
 135414060.18315 105517563.31052                  25768438.711    25768446.926
        30.700          15.600
 115768158.982 7  90209009.82345                  22029926.578    22029935.320
        46.400          31.200
 127341186.682 6  99227014.27445                  24232223.609    24232233.523
        37.600          30.800
 25  3 19  1 30 30.0000000  0 10G29G05G20G13G23G11G15G07G18G30
 113531261.398 8  88466017.12247                  21604267.375    21604276.293
        49.500          47.000
 109193618.072 8  85086079.05448                  20778812.844    20778820.941
        49.400          48.000
 120757258.128 6  94096661.76744                  22979300.742    22979309.777
        41.600          24.900
 106383729.558 8  82896470.45946                  20244112.641    20244119.977
        51.300          41.300
 123838201.407 6  96497326.85743                  23565618.734    23565628.531
        41.800          21.800
 131009594.001 6 102085471.20542                  24930264.789    24930277.926
        36.200          17.800
 108337276.645 8  84418756.56547                  20615857.680    20615866.422
        49.500          47.800
 135458085.34914                                  25776813.047
        29.600
 115689214.478 7  90147494.72145                  22014903.695    22014912.906
        45.900          31.200
 127342967.666 6  99228402.08345                  24232559.945    24232572.496
        37.900          30.400
 25  3 19  1 31  0.0000000  0 10G29G05G20G13G23G11G15G07G18G30
 113591338.986 8  88512830.78747                  21615699.797    21615708.715
        49.400          46.200
 109240424.374 8  85122551.50347                  20787720.258    20787728.180
        49.000          47.900
 120837969.380 7  94159553.57944                  22994660.500    22994669.828
        42.000          25.500
 106379450.146 8  82893135.88046                  20243298.172    20243305.859
        49.500          40.700
 123753668.234 6  96431456.98743                  23549531.469    23549543.082
        41.500          22.000
 131111488.84315 102164869.65252                  24949651.789    24949668.035
        34.200          16.300
 108266389.754 8  84363520.09147                  20602368.688    20602377.020
        49.500          47.400
 135502517.04815                                  25785269.836
        30.800
 115610515.555 7  90086170.99745                  21999927.320    21999937.293
        46.400          32.600
 127345263.493 6  99230191.12445                  24232998.141    24233010.398
        37.300          30.400
 25  3 19  1 31 30.0000000  0  9G29G05G20G13G23G11G15G18G30
 113651937.213 8  88560050.13347                  21627231.273    21627240.426
        50.200          46.400
 109287521.298 8  85159250.34248                  20796682.523    20796690.094
        49.300          48.300
 120918801.800 6  94222539.82544                  23010041.789    23010051.352
        41.300          25.500
 106375826.817 8  82890312.54146                  20242608.211    20242615.664
        50.800          40.600
 123669250.767 7  96365677.24543                  23533469.016    23533478.754
        42.400          22.800
 131213503.168 5 102244361.20842                  24969065.055    24969081.242
        34.800          16.900
 108195994.198 8  84308666.47747                  20588971.938    20588981.383
        48.500          47.900
 115532064.620 7  90025040.47645                  21984998.500    21985008.473
        45.800          32.600
 127348074.817 5  99232381.82645                  24233530.594    24233545.082
        35.200          30.200
 25  3 19  1 32  0.0000000  0  9G29G05G20G13G23G11G15G18G30
 113713053.931 8  88607673.52147                  21638861.578    21638870.730
        49.400          46.700
 109334908.118 8  85196175.16248                  20805699.516    20805707.906
        48.900          48.100
 120999754.500 6  94285619.77344                  23025446.391    23025456.246
        41.800          24.200
 106372859.458 8  82888000.34046                  20242044.164    20242051.617
        50.900          41.100
 123584949.420 7  96299988.05343                  23517426.313    23517436.402
        42.600          23.400
 131315635.675 5 102323944.70842                  24988501.750    24988516.004
        35.700          16.900
 108126091.274 8  84254196.72947                  20575670.094    20575678.836
        49.000          47.300
 115453863.722 7  89964104.80545                  21970117.258    21970127.289
        46.500          32.800
 127351401.859 6  99234974.42445                  24234164.156    24234178.527
        36.200          30.400
 25  3 19  1 32 30.0000000  0  9G29G05G20G13G23G11G15G18G30
 113774686.824 8  88655699.09047                  21650590.148    21650598.773
        49.100          46.200
 109382583.378 8  85233324.72748                  20814771.781    20814779.762
        49.300          48.000
 121080826.612 7  94348792.79444                  23040875.430    23040883.645
        42.000          27.100
 106370547.630 8  82886198.94146                  20241604.109    20241612.090
        50.800          41.300
 123500764.484 6  96234389.57643                  23501405.484    23501416.512
        41.400          23.500
 131417885.122 5 102403619.48542                  25007961.047    25007974.711
        35.800          16.300
 108056682.705 8  84200112.19847                  20562461.867    20562470.727
        49.100          47.600
 115375914.789 7  89903365.43845                  21955284.063    21955293.918
        45.900          32.400
 127355244.812 6  99237969.05944                  24234897.914    24234910.348
        36.500          28.900
 25  3 19  1 33  0.0000000  0  9G29G05G20G13G23G11G15G18G30
 113836833.528 8  88704125.01447                  21662416.070    21662425.164
        48.800          45.900
 109430546.432 8  85270698.53448                  20823899.539    20823906.816
        50.400          48.100
 121162018.057 6  94412058.83344                  23056324.313    23056333.582
        41.600          25.200
 106368891.145 8  82884908.19946                  20241288.984    20241296.086
        50.000          41.100
 123416696.481 6  96168882.18843                  23485407.078    23485418.223
        40.700          22.600
 131520250.395 5 102483384.45042                  25027439.500    25027454.105
        35.200          15.600
 107987770.433 8  84146414.38447                  20549348.320    20549357.414
        49.600          47.700
 115298220.091 7  89842824.20145                  21940499.367    21940508.988
        45.900          33.900
 127359604.087 6  99241365.97244                  24235725.539    24235738.559
        37.100          29.300
 25  3 19  1 33 30.0000000  0  9G29G05G20G13G23G11G15G18G30
 113899492.019 8  88752949.76447                  21674340.102    21674348.785
        49.000          45.900
 109478795.832 8  85308295.46648                  20833080.180    20833088.277
        49.900          48.200
 121243327.584 6  94475416.84944                  23071797.836    23071806.578
        40.900          25.300
 106367889.653 8  82884127.84446                  20241098.070    20241106.109
        50.900          41.200
 123332745.747 6  96103466.21543                  23469431.734    23469442.645
        40.600          22.500
 131622730.077 5 102563238.65042                  25046941.117    25046955.016
        35.500          16.300
 107919355.850 8  84093104.38248                  20536329.453    20536338.137
        49.300          48.000
 115220781.417 7  89782482.39645                  21925763.898    21925772.875
        46.700          33.600
 127364479.858 6  99245165.35744                  24236654.625    24236665.770
        37.200          29.700
 25  3 19  1 34  0.0000000  0  9G29G05G20G13G23G11G15G18G30
 113962659.883 8  88802171.43447                  21686360.555    21686369.238
        48.500          46.800
 109527331.155 8  85346115.17648                  20842316.781    20842324.762
        49.700          48.100
 121324754.852 6  94538866.60043                  23087292.203    23087302.234
        39.700          23.300
 106367542.882 8  82883857.66646                  20241032.063    20241039.926
        50.200          40.800
 123248912.897 6  96038142.06743                  23453478.352    23453489.672
        39.800          21.800
 131725323.348 6 102643181.33442                  25066465.102    25066478.824
        36.300          14.800
 107851440.943 8  84040183.73947                  20523405.586    20523414.035
        50.400          47.600
 115143601.283 7  89722342.07345                  21911076.461    21911085.438
        46.400          33.400
 127369872.458 5  99249367.47444                  24237678.719    24237692.207
        34.800          28.200
 25  3 19  1 34 30.0000000  0  9G29G05G20G13G23G11G15G18G30
 114026334.486 7  88851787.95847                  21698476.898    21698486.578
        47.900          45.800
 109576150.825 8  85384156.43848                  20851606.688    20851614.961
        49.700          48.500
 121406298.941 6  94602407.36843                  23102808.961    23102819.930
        39.200          23.900
 106367850.002 8  82884097.00546                  20241090.516    20241097.910
        50.400          40.100
 123165198.130 6  95972909.96343                  23437547.813    23437559.719
        38.900          21.500
 131828028.607 6 102723211.14942                  25086009.922    25086023.586
        36.200          12.600
 107784026.723 8  83987653.23348                  20510576.914    20510586.184
        49.200          48.000
 115066681.642 7  89662404.79145                  21896439.352    21896448.387
        46.600          33.600
 127375781.922 6  99253972.33845                  24238803.813    24238816.715
        36.200          31.200
 25  3 19  1 35  0.0000000  0  9G29G05G20G13G23G11G15G18G30
 114090513.861 7  88901797.80747                  21710690.219    21710699.254
        47.700          45.600
 109625254.538 8  85422419.07048                  20860950.969    20860959.066
        50.000          48.400
 121487959.875 6  94666039.20944                  23118349.148    23118359.004
        39.700          24.200
 106368811.170 8  82884845.99146                  20241273.195    20241280.941
        50.500          40.900
 123081602.165 6  95907770.38243                  23421640.563    23421651.883
        38.800          22.900
 131930844.959 5                                  25105573.063
        34.300
 107717115.268 8  83935514.49248                  20497844.125    20497852.867
        50.300          48.600
 114990024.861 7  89602672.39745                  21881851.688    21881861.191
        47.000          34.100
 127382208.769 6  99258980.37344                  24240028.859    24240039.770
        37.600          28.600
 25  3 19  1 35 30.0000000  0  9G29G05G20G13G23G11G15G18G30
 114155195.289 7  88952198.87347                  21722998.453    21723007.781
        47.200          44.800
 109674640.402 8  85460901.53348                  20870348.758    20870356.738
        50.300          48.300
 121569736.464 6  94729761.14343                  23133910.820    23133920.617
        39.900          22.800
 106370425.639 8  82886104.04646                  20241580.797    20241588.074
        50.300          41.100
 122998125.016 6  95842723.38943                  23405755.992    23405766.844
        40.200          22.600
 132033770.800 5                                  25125160.422
        34.700
 107650707.916 8  83883768.58448                  20485207.461    20485216.262
        50.200          48.200
 114913632.454 7  89543145.99245                  21867314.711    21867323.805
        46.500          34.400
 127389152.660 6  99264391.34745                  24241348.195    24241361.625
        36.000          30.900
 25  3 19  1 36  0.0000000  0  9G29G05G20G13G23G11G15G18G30
 114220376.598 7  89002989.46347                  21735402.328    21735411.188
        46.200          44.900
 109724308.133 8  85499603.64648                  20879799.938    20879807.977
        51.100          48.300
 121651628.514 6  94793573.07144                  23149494.875    23149503.617
        39.700          24.000
 106372693.118 8  82887870.95246                  20242012.672    20242019.832
        50.900          40.900
 122914767.400 6  95777769.54743                  23389892.914    23389904.527
        39.700          22.200
 132136805.269 5                                  25144769.289
        34.800
 107584806.314 8  83832416.75148                  20472666.500    20472675.008
        50.800          48.200
 114837506.873 7  89483827.50945                  21852828.633    21852837.492
        46.700          34.400
 127396614.045 6  99270205.54245                  24242768.219    24242780.828
        36.100          30.500
 25  3 19  1 36 30.0000000  0  9G29G05G20G13G23G11G15G18G30
 114286055.562 7  89054167.83347                  21747900.969    21747910.063
        47.300          43.900
 109774256.634 8  85538524.50848                  20889305.648    20889313.102
        50.800          48.100
 121733635.221 6  94857474.33844                  23165099.484    23165109.984
        38.700          24.600
 106375613.298 8  82890146.44246                  20242568.180    20242575.574
        51.400          41.600
 122831529.946 6  95712909.34943                  23374052.914    23374064.938
        38.200          21.100
 132239947.117 5                                  25164392.586
        32.200
 107519411.987 8  83781460.24148                  20460222.219    20460231.137
        50.600          48.000
 114761650.379 7  89424718.69445                  21838392.859    21838401.777
        47.000          34.400
 127404593.323 5  99276423.31044                  24244285.750    24244299.063
        34.900          27.200
 25  3 19  1 37  0.0000000  0  9G29G05G20G13G23G11G15G18G30
 114352230.303 7  89105732.53347                  21760492.898    21760502.227
        46.400          43.700
 109824485.565 8  85577663.90048                  20898863.883    20898871.570
        50.800          48.200
 121815756.441 6  94921464.83744                  23180726.461    23180737.020
        38.800          24.500
 106379186.041 8  82892930.41746                  20243247.719    20243255.172
        50.800          41.300
 122748413.444 6  95648143.46443                  23358235.336    23358248.355
        37.700          21.800
 132343195.67615                                  25184041.266
        31.300
 107454527.167 8  83730900.71048                  20447875.047    20447884.023
        50.500          49.000
 114686065.443 7  89365821.40645                  21824009.930    21824018.613
        47.100          34.900
 127413090.932 6  99283044.96944                  24245903.750    24245915.773
        36.200          29.900
 25  3 19  1 37 30.0000000  0  9G29G05G20G13G23G11G15G18G30
 114418897.744 7  89157681.15747                  21773179.195    21773189.285
        46.300          43.600
 109874993.212 8  85617020.45748                  20908474.891    20908482.813
        50.300          48.000
 121897991.238 6  94985543.81844                  23196375.742    23196385.012
        38.700          24.300
 106383409.967 8  82896221.80647                  20244051.414    20244059.277
        50.300          42.000
 122665417.609 6  95583471.53943                  23342440.891    23342453.852
        37.200          22.000
 132446549.018 5                                  25203710.109
        32.400
 107390152.678 8  83680738.84948                  20435625.297    20435633.688
        51.200          49.300
 114610753.381 7  89307136.62745                  21809678.648    21809687.449
        47.600          35.100
 127422106.172 6  99290069.96645                  24247620.047    24247631.543
        38.300          31.900
 25  3 19  1 38  0.0000000  0  9G29G05G20G13G23G11G15G18G30
 114486055.602 7  89210011.91247                  21785959.016    21785968.637
        44.400          43.700
 109925778.952 8  85656593.73647                  20918138.641    20918146.797
        50.200          47.900
 121980338.990 6  95049710.87444                  23212046.305    23212055.926
        38.900          24.700
 106388284.658 8  82900020.28146                  20244978.938    20244986.742
        49.500          41.400
 122582543.185 6  95518894.24243                  23326671.000    23326683.785
        38.000          22.500
 132550006.203 5                                  25223397.734
        31.000
 107326290.626 8  83630976.32348                  20423472.805    20423481.078
        51.400          49.000
 114535717.074 7  89248666.86245                  21795399.375    21795408.000
        47.000          34.600
 127431639.434 6  99297498.59345                  24249434.813    24249445.898
        37.300          31.500
 25  3 19  1 38 30.0000000  0  9G29G05G20G13G23G11G15G18G30
 114553701.224 7  89262722.75847                  21798831.555    21798841.645
        46.000          44.100
 109976841.248 8  85696382.54647                  20927855.727    20927863.707
        50.000          47.800
 122062798.937 6  95113965.32643                  23227738.734    23227748.063
        39.900          22.800
 106393809.677 8  82904325.49246                  20246030.445    20246037.898
        50.600          41.100
 122499790.372 6  95454411.67243                  23310923.367    23310935.039
        38.100          19.600
 132653565.77114                                  25243101.859
        28.600
 107262941.590 8  83581613.51548                  20411417.289    20411426.031
        51.400          49.000
 114460958.075 7  89190413.12245                  21781173.234    21781182.563
        46.900          35.300
 127441690.488 6  99305330.70045                  24251345.469    24251357.785
        36.500          31.000
 25  3 19  1 39  0.0000000  0  9G29G05G20G13G23G11G15G18G30
 114621832.703 7  89315812.18047                  21811797.188    21811806.516
        46.500          43.500
 110028179.993 8  85736386.77747                  20937624.938    20937633.035
        50.100          47.900
 122145371.359 6  95178307.41744                  23243451.313    23243460.992
        39.600          24.000
 106399984.783 8  82909137.26346                  20247205.492    20247212.945
        50.300          41.400
 122417160.246 6  95390024.69043                  23295198.898    23295210.980
        36.100          19.900
 132757227.07414                                  25262829.969
        29.100
 107200107.957 8  83532652.28048                  20399460.258    20399469.234
        51.200          48.900
 114386479.348 7  89132377.83545                  21767000.047    21767009.551
        46.700          34.900
 127452260.154 6  99313566.87044                  24253356.758    24253369.191
        37.600          29.700
 25  3 19  1 39 30.0000000  0  9G29G05G20G13G23G11G15G18G30
 114690446.664 7  89369277.56147                  21824854.047    21824863.785
        46.100          44.100
 110079793.269 8  85776604.89747                  20947446.727    20947454.707
        50.200          47.400
 122228054.328 6  95242735.68143                  23259185.750    23259195.020
        40.600          23.900
 106406808.446 8  82914454.41146                  20248503.820    20248511.391
        50.500          40.500
 122334652.184 6  95325732.81043                  23279497.992    23279509.430
        37.700          20.600
 132860987.881 5                                  25282578.664
        33.300
 107137790.084 8  83484092.88348                  20387601.961    20387610.586
        51.000          48.900
 114312282.171 7  89074562.02545                  21752880.914    21752890.008
        47.400          35.700
 127463347.283 5  99322206.25845                  24255465.109    24255479.125
        35.900          30.800
 25  3 19  1 40  0.0000000  0  9G29G05G20G13G23G11G15G18G30
 114759541.127 7  89423117.36447                  21838002.367    21838010.934
        46.000          43.800
 110131680.201 8  85817036.25747                  20957320.563    20957329.012
        50.200          47.700
 122310847.882 6  95307250.04943                  23274941.141    23274949.883
        41.200          22.600
 106414280.744 8  82920276.98746                  20249926.242    20249933.520
        50.200          40.900
 122252267.296 6  95261536.91343                  23263821.180    23263833.320
        38.300          21.300
 132964847.460 5                                  25302342.172
        32.600
 107075990.074 8  83435937.03748                  20375841.883    20375850.098
        51.400          48.900
 114238368.962 8  89016967.47946                  21738815.461    21738824.672
        48.100          36.100
 127474952.463 6  99331249.40944                  24257674.219    24257687.766
        37.500          29.300
 25  3 19  1 40 30.0000000  0  9G29G05G20G13G23G11G15G18G30
 114829113.488 7  89477329.56247                  21851241.055    21851250.676
        46.400          43.000
 110183840.443 8  85857680.58847                  20967246.102    20967254.141
        50.200          47.300
 122393751.488 6  95371850.22443                  23290716.250    23290725.871
        40.200          22.900
 106422400.421 8  82926604.01646                  20251471.016    20251478.762
        50.300          41.100
 122170005.818 6  95197437.19543                  23248166.828    23248178.793
        38.300          21.800
 133068804.515 5                                  25322124.359
        32.300
 107014709.579 8  83388186.11848                  20364180.352    20364188.801
        51.100          49.000
 114164741.702 7  88959595.66146                  21724805.102    21724813.902
        47.400          36.200
 127487075.458 6  99340695.95544                  24259981.453    24259994.531
        36.000          29.900
 25  3 19  1 41  0.0000000  0  9G29G05G20G13G23G11G15G18G30
 114899161.073 7  89531912.05347                  21864570.180    21864580.387
        46.600          43.300
 110236272.663 8  85898536.87347                  20977223.180    20977232.039
        50.000          47.300
 122476764.405 6  95436535.58243                  23306512.055    23306522.555
        40.300          22.500
 106431166.947 8  82933435.08946                  20253138.758    20253146.621
        50.600          40.600
 122087868.269 6  95133434.03543                  23232537.563    23232548.590
        38.500          20.600
 133172857.83415                                  25341924.180
        31.200
 106953949.735 8  83340840.83948                  20352618.102    20352626.082
        50.900          49.300
 114091402.682 8  88902448.42145                  21710848.508    21710858.012
        48.200          35.800
 127499716.474 6  99350546.21745                  24262387.508    24262398.652
        36.800          30.500
 25  3 19  1 41 30.0000000  0  9G29G05G20G13G23G11G15G18G30
 114969681.758 7  89586863.20247                  21877990.469    21877999.855
        46.300          43.900
 110288976.586 8  85939604.86647                  20987252.906    20987261.063
        50.000          47.400
 122559886.506 6  95501305.99843                  23322330.883    23322340.035
        40.900          22.000
 106440580.137 8  82940770.05446                  20254930.641    20254938.152
        50.400          40.900
 122005855.444 6  95069528.08443                  23216931.430    23216941.695
        38.600          21.500
 133277006.469 5                                  25361742.547
        30.500
 106893712.185 8  83293902.60848                  20341155.102    20341163.609
        51.600          49.400
 114018354.265 7  88845527.61445                  21696947.805    21696956.840
        47.200          34.800
 127512875.464 6  99360800.05045                  24264893.086    24264902.941
        39.200          31.400
 25  3 19  1 42  0.0000000  0  9G29G05G20G13G23G11G15G18G30
 115040672.580 7  89642180.68047                  21891500.047    21891508.906
        47.400          43.100
 110341950.406 8  85980883.15347                  20997333.383    20997341.598
        49.800          47.200
 122643116.435 6  95566160.42743                  23338168.836    23338178.926
        41.100          22.200
 106450638.451 8  82948607.71646                  20256845.055    20256852.156
        51.000          40.900
 121923967.153 6  95005719.17043                  23201348.039    23201359.125
        38.300          22.000
 133381248.680 5                                  25381580.273
        30.800
 106833997.882 8  83247372.08148                  20329792.070    20329800.578
        51.700          49.700
 113945598.274 8  88788834.67145                  21683102.758    21683111.734
        48.000          35.300
 127526551.941 6  99371457.14545                  24267493.922    24267505.125
        38.200          30.400
 25  3 19  1 42 30.0000000  0  9G29G05G20G13G23G11G15G18G30
 115112131.500 7  89697862.90547                  21905098.227    21905107.262
        46.700          43.900
 110395193.747 8  86022371.45147                  21007464.906    21007473.297
        49.700          46.900
 122726454.288 6  95631098.91543                  23354029.234    23354037.859
        40.800          22.800
 106461341.602 8  82956947.86146                  20258881.438    20258889.125
        50.900          40.900
 121842204.325 6  94942007.98543                  23185789.102    23185800.012
        37.600          21.500
 133485583.765 5                                  25401436.242
        30.700
 106774808.529 8  83201250.60148                  20318528.492    20318537.000
        51.400          49.200
 113873137.088 7  88732371.33945                  21669314.281    21669323.082
        47.400          35.200
 127540746.208 6  99382517.64245                  24270194.367    24270206.391
        37.700          31.400
 25  3 19  1 43  0.0000000  0  9G29G05G20G13G23G11G15G18G30
 115184055.752 7  89753907.73347                  21918784.719    21918793.988
        46.300          44.100
 110448704.971 8  86064068.48947                  21017648.422    21017656.168
        49.500          47.200
 122809899.433 6  95696120.99443                  23369907.602    23369916.344
        40.800          22.300
 106472688.587 8  82965789.69346                  20261040.781    20261047.824
        50.200          41.400
 121760567.136 6  94878394.66743                  23170253.555    23170264.816
        38.800          21.800
 133590009.967 4                                  25421305.633
        27.600
 106716145.258 8  83155539.00348                  20307365.297    20307373.336
        51.300          49.600
 113800972.957 8  88676139.56445                  21655581.898    21655590.172
        48.200          35.500
 127555457.904 6  99393981.36345                  24272994.914    24273005.883
        37.700          32.800
 25  3 19  1 43 30.0000000  0  9G29G05G20G13G23G11G15G18G30
 115256442.929 8  89810313.28147                  21932559.930    21932569.082
        48.100          44.000
 110502484.447 8  86105974.55247                  21027882.305    21027890.461
        49.300          46.900
 122893451.644 6  95761226.55543                  23385806.391    23385815.543
        41.000          22.300
 106484678.968 8  82975132.86746                  20263322.414    20263329.809
        50.300          40.400
 121679056.637 6  94814880.09643                  23154743.000    23154754.086
        39.500          21.800
 133694526.68214                                  25441193.695
        26.800
 106658010.062 8  83110238.88648                  20296302.500    20296310.949
        50.900          49.400
 113729108.472 8  88620141.29546                  21641906.875    21641915.148
        48.000          36.000
 127570687.311 6  99405848.45045                  24275892.531    24275903.910
        38.800          32.500
 25  3 19  1 44  0.0000000  0 10G29G05G20G13G23G11G15G24G18G30
 115329290.461 7  89867077.54947                  21946422.039    21946431.484
        47.800          44.000
 110556530.668 8  86148088.46647                  21038166.820    21038175.621
        50.200          46.700
 122977110.295 6  95826415.04443                  23401726.242    23401735.980
        41.100          22.800
 106497311.806 8  82984976.65446                  20265726.430    20265733.883
        50.900          40.600
 121597673.150 6  94751464.45243                  23139254.500    23139266.699
        39.200          21.300
 133799133.24113                                  25461098.750
        23.800
 106600403.993 8  83065351.07848                  20285340.391    20285348.840
        51.300          49.500
 134565252.12215 104856144.14752                  25606928.625    25606942.938
        32.500          16.900
 113657545.694 8  88564378.10846                  21628288.984    21628296.906
        48.900          36.700
 127586434.334 6  99418118.90445                  24278890.039    24278901.242
        38.600          33.100
 25  3 19  1 44 30.0000000  0  9G29G05G20G13G23G15G24G18G30
 115402595.441 8  89924198.27347                  21960370.969    21960380.590
        48.100          44.700
 110610842.728 8  86190409.53647                  21048502.727    21048510.355
        50.300          47.100
 123060874.571 6  95891685.85943                  23417665.719    23417675.457
        41.100          22.300
 106510585.842 8  82995320.06346                  20268251.906    20268259.535
        50.500          40.700
 121516416.936 6  94688147.97943                  23123792.859    23123803.594
        39.600          21.800
 106543328.261 8  83020876.51948                  20274479.086    20274486.891
        51.300          49.300
 134453439.741 5 104769018.08842                  25585648.000    25585664.832
        31.000          16.300
 113586286.580 8  88508851.50446                  21614728.477    21614736.457
        48.500          36.300
 127602698.570 6  99430792.44445                  24281983.141    24281996.219
        37.500          32.400
 25  3 19  1 45  0.0000000  0  9G29G05G20G13G23G15G24G18G30
 115476355.405 7  89981673.53147                  21974407.656    21974417.570
        47.900          44.100
 110665420.129 8  86232937.36347                  21058887.695    21058895.734
        49.500          46.600
 123144743.968 6  95957038.53143                  23433625.953    23433634.930
        40.700          22.500
 106524500.495 8  83006162.66946                  20270899.750    20270907.730
        51.400          40.800
 121435288.559 6  94624931.12643                  23108355.273    23108365.539
        40.800          21.500
 106486784.300 8  82976816.33348                  20263718.992    20263727.266
        51.000          49.600
 134341492.16815 104681786.61352                  25564346.242    25564361.668
        32.000          17.400
 113515333.495 7  88453563.39346                  21601226.477    21601235.395
        47.800          36.000
 127619479.859 6  99443868.84145                  24285177.359    24285189.031
        38.700          31.800
 25  3 19  1 45 30.0000000  0  9G29G05G20G13G23G15G24G18G30
 115550567.291 8  90039500.92547                  21988529.539    21988539.219
        48.000          44.500
 110720260.846 8  86275670.38347                  21069323.313    21069331.645
        49.400          46.300
 123228717.505 6  96022472.36443                  23449605.281    23449614.902
        40.900          22.000
 106539054.217 8  83017503.23746                  20273669.555    20273676.949
        49.800          41.200
 121354288.074 6  94561813.99443                  23092941.836    23092952.512
        41.000          22.300
 106430772.770 8  82933170.99948                  20253060.391    20253068.547
        50.600          49.300
 134229411.429 5 104594451.42243                  25543018.406    25543033.656
        33.300          19.300
 113444688.104 8  88398515.07046                  21587783.320    21587791.477
        48.400          37.100
 127636777.402 6  99457347.55945                  24288468.523    24288480.313
        38.600          31.800
 25  3 19  1 46  0.0000000  0  9G29G05G20G13G23G15G24G18G30
 115625228.430 8  90097678.39247                  22002737.414    22002747.211
        48.300          44.600
 110775364.011 8  86318607.90247                  21079809.625    21079817.723
        49.100          46.700
 123312794.857 6  96087987.09943                  23465605.602    23465614.871
        41.600          22.200
 106554246.217 8  83029341.16546                  20276560.648    20276567.926
        50.900          41.100
 121273415.945 6  94498796.90643                  23077552.492    23077563.051
        41.300          22.800
 106375295.152 8  82889941.71748                  20242503.461    20242512.027
        50.800          49.500
 134117199.977 5 104507014.39142                  25521662.555    25521679.621
        30.700          16.900
 113374352.940 8  88343708.63246                  21574398.703    21574406.566
        48.200          37.100
 127654591.057 6  99471228.44545                  24291859.570    24291869.660
        39.000          32.100
 25  3 19  1 46 30.0000000  0  9G29G05G20G13G23G15G24G18G30
 115700336.306 8  90156203.96647                  22017030.195    22017039.465
        48.000          44.600
 110830729.306 8  86361749.68647                  21090344.742    21090353.133
        49.000          46.900
 123396975.582 6  96153582.36043                  23481624.961    23481633.879
        41.300          21.300
 106570075.498 8  83041675.67246                  20279573.188    20279580.230
        50.200          41.100
 121192672.839 6  94435880.34743                  23062187.898    23062196.934
        41.300          21.700
 106320352.593 8  82847129.37748                  20232048.469    20232056.332
        51.300          49.700
 134004860.844 5 104419477.79043                  25500283.492    25500302.141
        31.000          18.300
 113304330.310 8  88289145.79946                  21561073.242    21561082.219
        48.100          37.000
 127672920.797 6  99485511.48045                  24295346.734    24295358.055
        39.300          31.700
 25  3 19  1 47  0.0000000  0  9G29G05G20G13G23G15G24G18G30
 115775888.232 8  90215075.55247                  22031406.813    22031416.316
        48.000          44.300
 110886355.102 8  86405094.45947                  21100930.797    21100938.836
        49.500          46.600
 123481258.925 6  96219257.60243                  23497663.094    23497672.188
        40.700          22.500
 106586540.640 8  83054505.66346                  20282705.695    20282713.207
        49.500          41.100
 121112059.043 7  94373064.53243                  23046847.164    23046856.258
        42.100          22.800
 106265946.504 8  82804735.08748                  20221694.945    20221702.926
        50.800          49.300
 133892396.28115 104331843.38753                  25478882.406    25478900.586
        31.000          19.000
 113234621.745 7  88234827.53846                  21547808.781    21547816.996
        47.800          37.600
 127691766.057 6  99500196.19845                  24298931.820    24298944.254
        38.300          31.900
 25  3 19  1 47 30.0000000  0  9G29G05G20G13G23G15G24G18G30
 115851881.743 7  90274291.22847                  22045868.055    22045877.559
        47.200          44.900
 110942240.466 8  86448641.49047                  21111565.055    21111573.680
        49.700          47.000
 123565644.616 6  96285012.61043                  23513720.938    23513730.207
        40.600          20.900
 106603641.094 8  83067830.71046                  20285959.750    20285966.734
        49.900          40.200
 121031574.922 6  94310349.74443                  23031530.797    23031539.891
        39.900          22.200
 106212077.838 8  82762759.58448                  20211443.961    20211452.703
        51.100          49.500
 133779808.84315 104244113.29053                  25457459.422    25457475.668
        32.600          19.600
 113165229.579 8  88180755.75346                  21534603.453    21534612.195
        48.300          37.500
 127711126.483 6  99515282.32345                  24302615.391    24302628.234
        37.700          30.300
 25  3 19  1 48  0.0000000  0  9G29G05G20G13G23G15G24G18G30
 115928314.256 7  90333848.98347                  22060412.719    22060421.988
        47.000          44.100
 110998385.832 8  86492391.11447                  21122249.492    21122257.180
        49.700          46.700
 123650132.417 6  96350847.15743                  23529798.875    23529808.438
        40.800          21.700
 106621376.551 8  83081650.56246                  20289334.836    20289341.996
        49.900          40.600
 120951221.690 6  94247736.96643                  23016239.844    23016249.641
        40.200          21.700
 106158748.316 8  82721204.22448                  20201295.617    20201303.773
        51.300          49.800
 133667102.38015                                  25436010.109
        32.900
 113096156.543 7  88126932.53246                  21521459.234    21521467.918
        47.900          37.100
 127731002.481 6  99530770.21945                  24306400.211    24306412.059
        39.800          33.300
 25  3 19  1 48 30.0000000  0  9G29G05G20G13G23G15G24G18G30
 116005182.478 7  90393746.25647                  22075040.070    22075049.691
        47.300          44.300
 111054789.440 8  86536341.94547                  21132982.500    21132990.715
        49.000          47.300
 123734721.542 6  96416760.69043                  23545896.070    23545904.930
        39.900          21.500
 106639744.860 8  83095963.54246                  20292830.469    20292837.395
        49.700          40.000
 120870999.226 6  94185226.08143                  23000973.367    23000983.281
        38.900          21.700
 106105958.469 8  82680069.27248                  20191250.203    20191257.891
        50.900          49.800
 133554277.79415                                  25414540.211
        31.800
 113027404.905 8  88073359.93346                  21508376.633    21508384.438
        48.600          38.200
 127751393.054 6  99546659.11045                  24310278.383    24310291.402
        37.200          32.500
 25  3 19  1 49  0.0000000  0  9G29G05G20G13G23G15G24G18G30
 116082484.674 7  90453981.68247                  22089750.227    22089760.023
        46.800          44.100
 111111451.306 8  86580494.00847                  21143764.852    21143773.301
        49.100          46.600
 123819411.431 6  96482752.72743                  23562011.336    23562021.016
        39.600          20.100
 106658745.445 8  83110769.21246                  20296446.117    20296453.277
        49.200          40.500
 120790908.555 6  94122817.92943                  22985732.516    22985742.313
        39.700          22.300
 106053710.369 8  82639356.54048                  20181307.984    20181315.555
        50.700          49.700
 133441338.36815 103980371.02653                  25393047.258    25393066.609
        32.200          21.500
 112958976.965 7  88020039.52246                  21495354.750    21495362.906
        47.400          37.900
 127772298.357 6  99562949.05645                  24314256.273    24314269.410
        38.800          31.800
 25  3 19  1 49 30.0000000  0  9G29G05G20G13G23G15G24G18G30
 116160217.448 7  90514552.63347                  22104542.172    22104552.145
        47.200          43.800
 111168369.100 8  86624845.53747                  21154595.852    21154604.008
        49.400          47.000
 123904201.191 6  96548822.60943                  23578145.844    23578155.934
        38.300          20.600
 106678376.794 8  83126066.38146                  20300181.891    20300189.051
        49.500          41.000
 120710949.632 6  94060512.42243                  22970516.016    22970527.688
        37.700          22.500
 106002004.320 8  82599066.17248                  20171468.328    20171476.074
        51.300          49.500
 133328287.08715 103892279.47353                  25371532.828    25371553.469
        31.600          20.900
 112890874.075 8  87966972.19646                  21482395.547    21482403.586
        48.400          37.300
 127793717.452 6  99579639.38045                  24318332.578    24318344.777
        39.200          31.000
 25  3 19  1 50  0.0000000  0  9G29G05G20G13G23G15G24G18G30
 116238378.013 7  90575456.91447                  22119416.086    22119425.648
        47.300          43.900
 111225542.632 8  86669396.33747                  21165476.125    21165483.520
        49.700          46.900
 123989090.816 6  96614970.30143                  23594299.930    23594311.016
        38.800          20.400
 106698638.046 8  83141854.38746                  20304037.180    20304044.633
        49.300          40.300
 120631122.853 6  93998309.88643                  22955325.844    22955336.461
        39.500          22.600
 105950841.419 8  82559198.90248                  20161732.047    20161740.027
        50.800          49.500
 133215126.190 5 103804102.44443                  25349999.727    25350019.078
        32.000          21.800
 112823099.133 7  87914160.54846                  21469498.461    21469506.617
        47.500          37.900
 127815650.022 6  99596729.77145                  24322505.445    24322517.176
        39.400          30.400
 25  3 19  1 50 30.0000000  0  9G29G05G20G13G23G15G24G18G30
 116316963.546 7  90636692.34447                  22134370.727    22134380.289
        46.500          44.100
 111282970.830 8  86714145.56147                  21176403.852    21176412.652
        48.900          46.500
 124074079.573 6  96681195.23343                  23610473.492    23610483.699
        38.200          20.600
 106719527.730 8  83158132.06946                  20308012.281    20308020.145
        49.200          40.200
 120551428.910 6  93936210.83143                  22940160.898    22940170.520
        41.000          22.600
 105900223.127 8  82519756.08148                  20152100.039    20152107.785
        51.700          49.800
 133101858.460 5 103715842.15643                  25328444.586    25328464.465
        30.700          21.300
 112755654.223 7  87861606.09746                  21456664.008    21456672.340
        47.200          38.700
 127838095.678 6  99614219.96845                  24326777.484    24326788.805
        39.600          31.500
 25  3 19  1 51  0.0000000  0  9G29G05G20G13G23G15G24G18G30
 116395971.375 7  90698256.82947                  22149404.477    22149414.273
        45.600          43.400
 111340652.719 8  86759092.47747                  21187380.828    21187388.984
        49.100          47.100
 124159166.897 6  96747496.92943                  23626664.422    23626674.922
        37.900          18.600
 106741044.513 8  83174898.39546                  20312106.781    20312114.293
        49.000          40.600
 120471868.105 6  93874215.57143                  22925020.625    22925031.184
        40.900          23.200
 105850150.395 8  82480738.41648                  20142571.266    20142579.598
        51.300          49.600
 132988486.42115 103627500.61253                  25306870.781    25306890.250
        32.900          20.400
 112688541.584 7  87809310.64646                  21443893.031    21443900.777
        47.700          37.600
 127861053.869 6  99632109.55145                  24331146.305    24331157.742
        39.900          30.800
 25  3 19  1 51 30.0000000  0  9G29G05G20G13G23G15G24G18G30
 116475398.342 7  90760147.91447                  22164519.656    22164529.395
        45.500          43.400
 111398587.147 8  86804236.19147                  21198405.602    21198413.641
        49.600          46.800
 124244351.945 6  96813874.80943                  23642875.344    23642885.844
        38.300          21.100
 106763187.256 8  83192152.48546                  20316320.063    20316327.633
        49.500          40.900
 120392440.754 6  93812324.30944                  22909905.648    22909916.676
        41.300          24.800
 105800623.932 8  82442146.45148                  20133146.945    20133155.043
        51.000          49.900
 132875012.490 5 103539079.59843                  25285277.359    25285296.652
        33.700          20.400
 112621762.832 8  87757275.26546                  21431185.406    21431193.270
        48.900          38.700
 127884524.019 6  99650398.13145                  24335612.602    24335624.273
        39.900          31.000
 25  3 19  1 52  0.0000000  0  9G29G05G20G13G23G15G24G18G30
 116555241.895 7  90822363.62347                  22179712.898    22179722.637
        45.800          43.200
 111456773.228 8  86849575.98047                  21209477.188    21209485.813
        49.300          46.600
 124329634.613 6  96880328.76943                  23659104.734    23659114.766
        37.700          19.600
 106785954.731 8  83209893.37946                  20320652.883    20320660.570
        50.300          40.700
 120313147.604 6  93750537.62343                  22894817.633    22894827.898
        41.600          22.300
 105751645.254 8  82403981.45848                  20123826.758    20123834.738
        51.400          50.200
 132761439.641 5 103450581.49343                  25263664.828    25263684.473
        34.300          21.300
 112555320.563 8  87705502.03246                  21418541.477    21418549.574
        48.500          37.000
 127908505.732 6  99669085.30345                  24340175.781    24340187.453
        39.700          31.000
 25  3 19  1 52 30.0000000  0  9G29G05G20G13G23G15G24G18G30
 116635499.287 7  90884901.80147                  22194985.672    22194995.059
        45.000          42.400
 111515210.707 8  86895111.66747                  21220597.461    21220606.086
        49.300          46.500
 124415014.408 6  96946858.40943                  23675351.242    23675361.332
        37.600          20.400
 106809345.508 8  83228119.95446                  20325103.938    20325111.449
        50.000          40.400
 120233988.959 6  93688855.70944                  22879754.195    22879764.461
        41.300          26.000
 105703215.476 8  82366244.29448                  20114610.516    20114618.379
        51.300          50.300
 132647770.471 5 103362008.39343                  25242035.594    25242052.426
        34.600          20.600
 112489216.871 8  87653992.57846                  21405962.180    21405970.863
        48.300          37.000
 127932998.463 6  99688170.65945                  24344836.227    24344847.547
        40.000          31.200
 25  3 19  1 53  0.0000000  0  9G29G05G20G13G23G15G24G18G30
 116716167.365 7  90947759.99847                  22210336.031    22210346.297
        45.000          42.400
 111573897.570 8  86940841.69547                  21231764.758    21231773.676
        49.100          46.600
 124500490.037 6  97013462.69443                  23691617.375    23691626.645
        37.700          20.400
 106833357.924 8  83246830.93046                  20329673.172    20329680.801
        50.300          40.800
 120154964.909 6  93627278.70244                  22864715.578    22864726.840
        40.000          26.200
 105655334.480 8  82328934.67548                  20105498.570    20105506.375
        51.300          50.900
 132534007.344 5 103273362.02643                  25220387.844    25220403.211
        34.200          19.300
 112423454.028 8  87602748.89546                  21393448.641    21393456.621
        48.500          38.200
 127958001.136 6  99707653.34045                  24349593.898    24349604.750
        39.400          30.200
 25  3 19  1 53 30.0000000  0  9G29G05G20G13G23G15G24G18G30
 116797243.671 7  91010936.29946                  22225764.477    22225774.625
        44.500          41.800
 111632833.876 8  86986766.04947                  21242980.664    21242988.820
        49.100          46.400
 124586061.782 6  97080141.90643                  23707900.594    23707911.035
        38.400          20.100
 106857991.160 8  83266025.65546                  20334361.156    20334368.609
        49.800          40.300
 120076076.480 6  93565807.30144                  22849704.742    22849714.480
        41.700          27.600
 105608003.419 8  82292053.32148                  20096491.930    20096500.145
        51.900          50.700
 132420153.415 5 103184644.89543                  25198720.141    25198736.914
        33.700          19.600
 112358034.378 8  87551772.61246                  21380999.070    21381007.051
        48.500          38.300
 127983513.928 6  99727533.56245                  24354448.195    24354459.750
        37.300          30.400
 25  3 19  1 54  0.0000000  0  9G29G05G20G13G23G15G24G18G30
 116878725.414 7  91074428.51847                  22241270.438    22241280.352
        44.700          42.400
 111692019.053 8  87032884.37947                  21254242.617    21254251.418
        48.100          46.000
 124671728.936 6  97146895.44343                  23724202.023    23724212.289
        39.400          19.300
 106883243.917 8  83285703.13046                  20339166.414    20339174.336
        50.300          40.700
 119997324.085 6  93504441.91144                  22834718.477    22834728.039
        41.100          26.000
 105561223.935 8  82255601.70248                  20087589.914    20087598.305
        51.400          51.200
 132306211.448 5 103095859.15043                  25177039.320    25177054.688
        35.000          19.900
 112292960.025 8  87501065.31846                  21368616.172    21368624.621
        48.700          37.700
 128009536.125 6  99747810.71745                  24359401.430    24359411.402
        37.700          31.100
 25  3 19  1 54 30.0000000  0  9G29G05G20G13G23G15G24G18G30
 116960609.423 7  91138234.19747                  22256852.508    22256862.480
        44.400          42.200
 111751451.802 8  87079195.58547                  21265552.820    21265561.504
        48.100          46.600
 124757491.148 6  97213723.03443                  23740523.914    23740532.422
        39.800          20.900
 106909114.793 8  83305862.25046                  20344089.727    20344096.652
        49.800          40.500
 119918708.156 7  93443182.88344                  22819757.867    22819768.133
        42.800          27.300
 105514996.622 8  82219580.31748                  20078793.398    20078801.438
        52.200          51.200
 132192183.963 5 103007006.75343                  25155340.063    25155356.133
        34.400          20.100
 112228233.493 8  87450629.25346                  21356298.719    21356307.578
        48.000          38.200
 128036066.886 6  99768484.16245                  24364450.594    24364459.863
        38.400          30.100
 25  3 19  1 55  0.0000000  0  9G29G05G20G13G23G15G24G18G30
 117042892.968 7  91202351.20346                  22272510.258    22272520.230
        44.500          41.700
 111811131.077 7  87125698.90947                  21276909.633    21276917.730
        47.500          45.600
 124843347.571 6  97280624.05543                  23756861.211    23756870.715
        39.200          19.000
 106935602.074 8  83326501.69646                  20349130.305    20349137.230
        49.000          39.900
 119840229.079 6  93382030.48344                  22804823.289    22804833.027
        40.400          27.900
 105469322.863 8  82183990.48948                  20070102.008    20070109.344
        51.100          51.300
 132078073.614 5 102918089.85443                  25133624.711    25133640.957
        34.300          20.400
 112163856.238 7  87400465.15946                  21344047.523    21344056.500
        47.700          38.100
 128063105.680 6  99789553.45845                  24369595.313    24369606.691
        38.800          30.800
 25  3 19  1 55 30.0000000  0  9G29G05G20G13G23G15G24G18G30
 117125573.415 7  91266777.47546                  22288243.680    22288254.238
        43.900          40.700
 111871056.398 8  87172393.95447                  21288312.945    21288321.102
        48.300          46.500
 124929298.168 6  97347598.51443                  23773217.719    23773226.871
        38.800          19.900
 106962704.639 8  83347620.57746                  20354287.422    20354294.406
        49.500          40.400
 119761887.602 7  93320985.28644                  22789915.969    22789925.707
        43.300          26.700
 105424203.468 8  82148832.54748                  20061516.219    20061523.672
        52.000          51.600
 131963883.634 5 102829110.81943                  25111895.344    25111911.180
        34.600          20.900
 112099831.071 7  87350575.42146                  21331864.602    21331872.816
        47.500          39.000
 128090652.128 6  99811018.34445                  24374836.641    24374848.020
        37.900          31.600
 25  3 19  1 56  0.0000000  0  9G29G05G20G13G23G15G24G18G30
 117208647.401 7  91331510.39846                  22304051.602    22304062.160
        43.500          40.900
 111931226.046 8  87219279.39447                  21299762.867    21299771.141
        48.200          46.700
 125015341.879 6  97414645.47643                  23789591.828    23789600.688
        37.000          19.000
 106990420.572 8  83369217.41346                  20359561.609    20359569.063
        49.500          40.100
 119683683.729 7  93260047.28644                  22775033.969    22775043.707
        42.100          28.200
 105379638.409 8  82114106.35248                  20053035.805    20053043.609
        51.400          50.900
 131849616.060 5 102740071.39643                  25090151.227    25090166.945
        35.000          20.400
 112036159.683 8  87300961.32846                  21319748.242    21319756.867
        48.200          38.100
 128118704.947 6  99832877.73344                  24380175.234    24380186.320
        36.100          29.400
 25  3 19  1 56 30.0000000  0  9G29G05G20G13G23G15G24G18G30
 117292112.696 7  91396548.23146                  22319935.242    22319945.566
        44.300          41.000
 111991639.709 8  87266354.97947                  21311259.320    21311267.711
        48.900          46.000
 125101478.712 6  97481765.00543                  23805981.867    23805991.313
        36.900          19.000
 107018748.919 8  83391291.45546                  20364952.297    20364959.223
        49.800          40.500
 119605618.377 7  93199217.24044                  22760179.375    22760188.059
        44.600          28.100
 105335630.036 8  82079814.21948                  20044661.016    20044668.820
        51.800          51.900
 131735274.187 5 102650974.07343                  25068391.125    25068408.484
        34.200          21.300
 111972845.014 8  87251625.32646                  21307699.930    21307707.793
        48.000          37.800
 128147264.022 6  99855131.64544                  24385609.281    24385620.191
        36.600          27.300
 25  3 19  1 57  0.0000000  0  9G29G05G20G13G23G15G24G18G30
 117375965.919 7  91461888.35946                  22335891.758    22335901.965
        44.300          40.200
 112052296.954 7  87313620.34547                  21322802.172    21322810.035
        47.000          46.500
 125187708.048 5  97548956.62142                  23822390.563    23822400.125
        35.500          17.400
 107047687.772 8  83413841.21846                  20370459.109    20370466.328
        48.900          39.900
 119527692.014 7  93138495.51144                  22745349.531    22745359.094
        44.500          27.900
 105292178.754 8  82045956.38848                  20036392.313    20036400.234
        52.500          52.000
 131620860.667 5 102561820.89643                  25046618.266    25046636.270
        34.400          22.000
 111909888.828 8  87202568.61046                  21295719.648    21295728.566
        48.100          38.400
 128176328.509 6  99877779.43444                  24391141.000    24391151.031
        37.600          29.300
 25  3 19  1 57 30.0000000  0  9G29G05G20G13G23G15G24G18G30
 117460204.342 7  91527528.63846                  22351921.680    22351932.590
        44.200          40.600
 112113196.568 8  87361074.57847                  21334390.797    21334398.777
        48.400          46.400
 125274029.355 6  97616219.85343                  23838817.508    23838825.547
        36.100          18.300
 107077236.003 8  83436865.81446                  20376082.086    20376089.480
        49.600          39.700
 119449905.099 7  93077882.41844                  22730546.648    22730556.738
        44.500          28.000
 105249284.790 8  82012532.72148                  20028229.313    20028237.469
        51.600          50.000
 131506378.374 5 102472614.16543                  25024834.195    25024851.672
        35.200          22.900
 111847293.331 7  87153792.89646                  21283807.953    21283816.461
        47.300          39.200
 128205897.735 6  99900820.50944                  24396766.727    24396777.227
        37.800          29.700
 25  3 19  1 58  0.0000000  0  9G29G05G20G13G23G15G24G18G30
 117544824.713 7  91593466.52246                  22368024.773    22368034.688
        45.100          40.600
 112174337.347 8  87408716.73347                  21346026.234    21346033.980
        49.000          46.400
 125360441.727 6  97683554.10243                  23855259.891    23855269.043
        36.500          19.000
 107107392.003 8  83460364.00246                  20381820.883    20381827.340
        49.800          40.500
 119372257.826 7  93017378.15544                  22715770.984    22715780.254
        43.700          29.400
 105206946.821 8  81979541.29448                  20020173.469    20020181.625
        51.800          50.300
 131391829.765 5 102383355.76244                  25003035.961    25003052.910
        35.200          24.400
 111785060.940 7  87105300.29246                  21271966.156    21271974.137
        47.700          38.400
 128235970.579 6  99924254.00445                  24402489.516    24402500.191
        37.800          30.900
 25  3 19  1 58 30.0000000  0  9G29G05G20G13G23G15G24G18G30
 117629824.958 7  91659700.42646                  22384199.734    22384210.527
        44.700          40.800
 112235719.218 8  87456546.76547                  21357706.438    21357714.242
        48.600          46.600
 125446945.363 6  97750959.46842                  23871722.852    23871731.535
        37.200          17.400
 107138154.656 8  83484334.91546                  20387674.156    20387680.965
        50.000          39.800
 119294751.371 7  92956983.59044                  22701021.195    22701031.520
        44.100          27.400
 105165170.162 8  81946988.08248                  20012223.617    20012231.773
        51.900          51.100
 131277218.245 5 102294048.34044                  24981225.773    24981242.430
        35.700          24.300
 111723193.530 7  87057091.80346                  21260192.938    21260200.801
        47.600          37.500
 128266546.992 6  99948079.86745                  24408309.570    24408318.898
        37.800          30.500
 25  3 19  1 59  0.0000000  0  9G29G05G20G13G23G15G24G18G30
 117715201.365 7  91726227.43646                  22400447.711    22400456.863
        45.700          41.000
 112297340.443 8  87504563.29247                  21369432.453    21369440.785
        48.700          46.200
 125533539.439 6  97818435.25843                  23888199.391    23888210.242
        36.200          18.300
 107169521.337 8  83508776.48846                  20393642.984    20393650.848
        49.500          39.700
 119217385.678 7  92896698.75444                  22686299.195    22686309.051
        44.200          27.800
 105123953.350 8  81914871.15448                  20004380.305    20004387.934
        51.900          51.100
 131162546.168 6 102204693.73644                  24959404.906    24959420.801
        36.300          25.800
 111661693.462 7  87009169.61946                  21248489.789    21248497.887
        46.500          37.800
 128297625.802 6  99972297.25444                  24414221.750    24414232.484
        38.200          29.300
 25  3 19  1 59 30.0000000  0  9G29G05G20G13G23G15G24G18G30
 117800951.167 7  91793045.40446                  22416764.008    22416773.746
        45.200          40.500
 112359200.774 8  87552766.13347                  21381204.219    21381212.082
        49.100          46.300
 125620223.369 5  97885981.07842                  23904695.195    23904705.461
        35.800          16.900
 107201490.809 8  83533687.76446                  20399726.977    20399734.605
        50.500          39.900
 119140161.317 7  92836524.04244                  22671603.992    22671613.438
        44.400          27.800
 105083297.084 8  81883191.13948                  19996643.328    19996651.719
        52.100          51.500
 131047816.371 6 102115294.14444                  24937572.359    24937588.957
        36.100          25.900
 111600562.993 8  86961535.52946                  21236856.742    21236865.133
        48.000          38.600
 128329205.836 6  99996905.19745                  24420231.461    24420241.785
        37.700          30.200
 25  3 19  2  0  0.0000000  0  9G29G05G20G13G23G15G24G18G30
 117887071.432 7  91860152.04846                  22433152.469    22433161.680
        45.600          41.200
 112421299.016 7  87601154.36747                  21393020.891    21393028.813
        47.700          46.200
 125706997.041 5  97953596.83442                  23921207.844    23921218.051
        35.500          17.400
 107234061.892 8  83559067.83146                  20405924.844    20405932.473
        49.500          39.400
 119063078.808 7  92776459.82844                  22656935.469    22656944.445
        43.900          28.100
 105043202.391 8  81851948.63948                  19989013.500    19989021.539
        52.100          51.400
 130933031.705 5 102025851.81744                  24915728.664    24915745.555
        34.800          25.200
 111539804.410 7  86914191.24946                  21225295.203    21225303.359
        47.500          39.400
 128361286.737 6 100021903.38144                  24426335.477    24426346.563
        36.300          27.500
 25  3 19  2  0 30.0000000  0  9G29G05G20G13G23G15G24G18G30
 117973559.329 7  91927545.15446                  22449610.977    22449620.363
        45.500          40.900
 112483634.776 7  87649727.66847                  21404882.813    21404890.969
        47.500          46.200
 125793859.385 5  98021281.69842                  23937736.828    23937747.270
        34.400          17.800
 107267232.727 8  83584915.23446                  20412236.945    20412244.047
        49.800          39.900
 118986138.890 7  92716506.74644                  22642294.828    22642304.215
        44.800          29.300
 105003669.887 8  81821144.15248                  19981490.930    19981498.559
        52.000          51.100
 130818195.290 5 101936369.19644                  24893876.375    24893892.035
        35.900          25.100
 111479419.968 7  86867138.53846                  21213803.719    21213812.520
        47.400          38.300
 128393867.868 6 100047291.37744                  24432536.945    24432546.215
        36.500          27.800
 25  3 19  2  1  0.0000000  0  9G29G05G20G13G23G15G24G18G30
 118060411.832 7  91995222.36546                  22466138.609    22466148.465
        45.200          41.300
 112546206.683 7  87698484.96547                  21416790.430    21416798.586
        47.500          46.300
 125880810.286 5  98089035.66342                  23954282.727    23954292.816
        34.800          16.300
 107301001.698 8  83611228.72646                  20418663.406    20418670.625
        49.000          39.600
 118909342.039 7  92656665.19745                  22627681.195    22627689.879
        44.900          30.400
 104964700.256 8  81790778.39448                  19974075.180    19974082.809
        52.500          51.400
 130703309.757 5 101846848.29144                  24872013.609    24872028.859
        35.800          26.700
 111419411.585 7  86820378.81246                  21202384.844    21202393.234
        47.100          38.000
 128426947.920 5 100073068.11844                  24438830.438    24438841.699
        34.700          28.100
 25  3 19  2  1 30.0000000  0  9G29G05G20G13G23G15G24G18G30
 118147625.759 7  92063181.20446                  22482734.977    22482745.066
        46.400          41.300
 112609013.647 8  87747425.40447                  21428741.781    21428750.230
        48.000          45.400
 125967848.961 6  98156857.83342                  23970848.117    23970856.449
        36.800          17.400
 107335366.556 8  83638006.53946                  20425202.195    20425209.766
        49.800          39.200
 118832688.235 7  92596935.05445                  22613093.695    22613103.609
        44.300          30.700
 104926293.290 8  81760850.80848                  19966766.664    19966774.410
        52.100          51.400
 130588377.685 6 101757291.13644                  24850143.852    24850158.691
        36.900          27.500
 111359781.270 8  86773913.65846                  21191037.398    21191045.555
        48.500          38.700
 128460525.85115 100099232.82954                  24445218.773    24445231.324
        33.500          26.800
 25  3 19  2  2  0.0000000  0  9G29G05G20G13G23G15G24G18G30
 118235198.432 7  92131419.58746                  22499399.453    22499409.133
        45.800          41.900
 112672055.808 7  87796549.14647                  21440738.273    21440746.313
        46.300          45.800
 126054975.275 6  98224748.41243                  23987426.500    23987436.355
        36.300          18.600
 107370326.501 8  83665248.05546                  20431854.953    20431862.523
        49.000          39.400
 118756178.574 7  92537317.27345                  22598534.820    22598544.441
        44.900          30.400
 104888450.560 8  81731362.78548                  19959565.133    19959573.348
        51.700          51.400
 130473402.370 6 101667700.27644                  24828263.008    24828279.664
        36.100          26.700
 111300531.945 7  86727745.54846                  21179762.328    21179771.246
        47.500          38.600
 128494601.320 6 100125785.26444                  24451705.742    24451715.891
        36.200          28.500
 25  3 19  2  2 30.0000000  0  9G29G05G20G13G23G15G24G18G30
 118323126.733 7  92199935.07146                  22516131.586    22516141.500
        46.000          41.300
 112735331.634 7  87845854.95647                  21452779.320    21452787.535
        47.300          46.100
 126142188.523 6  98292706.70943                  24004022.578    24004032.551
        36.500          18.600
 107405878.910 8  83692951.24546                  20438620.609    20438628.004
        50.200          39.200
 118679813.202 7  92477811.92145                  22584002.680    22584012.535
        45.400          30.600
 104851172.662 8  81702315.13748                  19952471.727    19952479.414
        52.200          52.300
 130358386.349 6 101578077.72044                  24806375.031    24806392.156
        36.100          27.100
 111241664.768 7  86681875.02146                  21168560.180    21168568.980
        47.500          38.100
 128529172.969 6 100152724.30045                  24458282.906    24458294.461
        36.100          30.400
 25  3 19  2  3  0.0000000  0  9G29G05G20G13G23G15G24G18G30
 118411407.302 7  92268725.05046                  22532931.438    22532940.766
        45.700          41.800
 112798840.162 7  87895342.10447                  21464864.664    21464872.938
        46.800          45.600
 126229488.140 6  98360732.22743                  24020636.297    24020645.508
        37.300          18.300
 107442022.471 8  83721115.06146                  20445498.344    20445505.738
        49.200          39.600
 118603592.606 7  92418419.36645                  22569497.813    22569507.727
        44.900          30.100
 104814459.920 8  81673707.84048                  19945485.367    19945493.172
        51.300          51.500
 130243332.555 5 101488425.69444                  24784481.422    24784498.195
        35.900          28.000
 111183182.263 8  86636304.17546                  21157431.813    21157440.027
        48.100          39.500
 128564240.016 6 100180049.37444                  24464957.086    24464967.117
        38.400          28.700
 25  3 19  2  3 30.0000000  0  9G29G05G20G13G23G15G24G18G30
 118500037.580 7  92337787.52946                  22549796.750    22549805.961
        46.200          41.300
 112862581.231 7  87945010.46647                  21476994.164    21477002.145
        47.100          45.100
 126316873.957 6  98428824.97342                  24037264.945    24037273.570
        37.100          17.800
 107478755.493 8  83749738.20646                  20452488.383    20452495.426
        50.400          39.800
 118527517.506 7  92359140.11844                  22555020.180    22555031.031
        44.000          29.700
 104778313.343 8  81645541.72648                  19938607.203    19938614.422
        51.900          52.100
 130128244.157 5 101398746.73344                  24762581.016    24762596.500
        35.200          26.000
 111125087.116 8  86591035.26746                  21146376.594    21146384.574
        48.400          39.500
 128599801.629 6 100207759.76844                  24471724.242    24471733.395
        37.000          27.500
 25  3 19  2  4  0.0000000  0  9G29G05G20G13G23G15G24G18G30
 118589014.110 7  92407119.82846                  22566728.977    22566738.656
        45.400          41.300
 112926553.354 7  87994858.86647                  21489168.070    21489175.758
        46.700          45.100
 126404345.283 6  98496984.33243                  24053910.898    24053918.820
        36.100          18.600
 107516075.715 8  83778818.91146                  20459590.281    20459597.441
        49.600          39.900
 118451588.078 7  92299974.38644                  22540572.750    22540581.727
        44.600          28.600
 104742732.158 8  81617816.01948                  19931836.063    19931843.574
        51.800          52.100
 130013123.501 6 101309042.61844                  24740674.797    24740690.047
        36.400          28.600
 111067381.041 7  86546069.62246                  21135395.500    21135403.715
        47.800          39.000
 128635856.424 6 100235854.54744                  24478584.500    24478593.711
        36.400          27.200
 25  3 19  2  4 30.0000000  0  9G29G05G20G13G23G15G24G18G30
 118678334.131 7  92476719.78046                  22583725.914    22583734.891
        45.500          40.800
 112990755.474 7  88044886.48447                  21501384.758    21501393.500
        47.300          44.300
 126491901.151 6  98565209.56942                  24070571.344    24070580.438
        36.000          17.400
 107553981.486 8  83808355.88646                  20466803.078    20466810.590
        49.800          39.400
 118375804.986 7  92240922.77745                  22526151.805    22526160.078
        45.300          31.300
 104707718.069 8  81590532.29548                  19925173.180    19925181.043
        52.900          52.000
 129897973.499 5 101219315.62644                  24718761.461    24718777.531
        35.800          27.100
 111010065.881 8  86501408.48346                  21124488.695    21124496.676
        48.500          40.000
 128672403.349 6 100264332.73144                  24485538.875    24485548.555
        36.200          27.200
 25  3 19  2  5  0.0000000  0  9G29G05G20G13G23G15G24G18G30
 118767994.944 7  92546585.26546                  22600787.063    22600797.152
        45.500          41.100
 113055187.560 7  88095093.28647                  21513646.125    21513654.633
        47.800          44.600
 126579541.754 6  98633500.85143                  24087249.578    24087258.027
        36.800          18.600
 107592471.344 8  83838348.00146                  20474127.875    20474135.211
        50.700          39.300
 118300168.901 7  92181985.66345                  22511758.609    22511767.176
        46.000          31.000
 104673271.745 8  81563691.03948                  19918618.164    19918625.793
        51.900          52.200
 129782797.493 5 101129568.35444                  24696842.273    24696860.043
        35.000          27.000
 110953144.602 8  86457054.35846                  21113656.523    21113664.855
        49.100          38.800
 128709441.850 6 100293193.93444                  24492587.078    24492597.871
        37.600          28.200
 25  3 19  2  5 30.0000000  0  9G29G05G20G13G23G15G24G18G30
 118857993.198 7  92616713.67546                  22617914.031    22617923.594
        45.900          41.100
 113119848.758 7  88145478.61347                  21525950.344    21525958.617
        46.800          44.500
 126667266.362 6  98701857.58842                  24103942.203    24103952.410
        36.200          17.400
 107631543.400 8  83868793.77346                  20481563.352    20481570.453
        50.700          39.400
 118224680.409 7  92123163.59644                  22497393.313    22497402.582
        45.200          29.500
 104639393.484 8  81537292.45748                  19912171.320    19912178.949
        51.600          51.900
 129667598.358 5 101039803.04744                  24674922.469    24674938.422
        35.400          28.500
 110896618.975 8  86413008.53946                  21102900.211    21102908.660
        48.800          39.200
 128746970.778 6 100322437.29944                  24499727.531    24499739.145
        36.400          28.500
 25  3 19  2  6  0.0000000  0  9G29G05G20G13G23G15G24G18G30
 118948325.726 7  92687102.58746                  22635103.727    22635113.113
        45.500          40.500
 113184737.708 7  88196041.41647                  21538298.820    21538306.742
        47.800          44.700
 126755074.617 5  98770279.52742                  24120651.430    24120661.578
        34.500          17.800
 107671195.535 8  83899691.56646                  20489109.063    20489115.461
        51.200          39.500
 118149339.922 7  92064456.82745                  22483056.109    22483065.613
        44.900          30.100
 104606083.876 8  81511337.00848                  19905832.656    19905840.051
        51.700          52.000
 129552378.876 6 100950021.91944                  24652996.273    24653013.164
        36.600          27.300
 110840490.939 8  86369272.36046                  21092219.703    21092227.508
        49.900          40.100
 128784989.319 6 100352062.24644                  24506962.336    24506973.598
        37.500          27.700
 25  3 19  2  6 30.0000000  0  9G29G05G20G13G23G15G24G18G30
 119038989.438 7  92757749.54546                  22652356.219    22652365.898
        44.600          40.900
 113249853.882 7  88246781.26147                  21550689.750    21550698.082
        47.100          44.400
 126842965.780 6  98838765.97442                  24137377.141    24137386.938
        36.900          17.400
 107711426.129 8  83931040.09746                  20496764.070    20496771.230
        50.300          38.900
 118074147.903 7  92005865.80345                  22468748.023    22468756.531
        46.300          30.500
 104573342.586 8  81485824.36248                  19899602.281    19899609.500
        52.300          52.100
 129437141.862 6 100860227.13044                  24631067.727    24631083.621
        37.500          27.200
 110784762.746 8  86325847.78246                  21081614.992    21081623.090
        51.000          40.600
 128823495.933 5 100382067.48844                  24514288.742    24514301.469
        32.600          28.000
 25  3 19  2  7  0.0000000  0  9G29G05G20G13G23G15G24G18G30
 119129981.827 7  92828652.62546                  22669671.656    22669681.102
        44.600          40.300
 113315196.635 7  88297697.66047                  21563124.188    21563132.285
        47.800          44.600
 126930939.798 6  98907316.99842                  24154119.063    24154128.273
        37.700          17.400
 107752233.102 8  83962837.75546                  20504529.539    20504536.816
        50.300          39.600
 117999104.688 7  91947390.60445                  22454466.719    22454476.398
        45.200          30.400
 104541170.650 8  81460755.41448                  19893480.430    19893487.355
        52.100          52.500
 129321890.484 6 100770421.11344                  24609136.016    24609151.793
        37.400          28.000
 110729436.292 8  86282736.00846                  21071086.469    21071095.270
        49.800          38.900
 128862489.733 5 100412452.37444                  24521708.719    24521721.445
        35.900          27.700
 25  3 19  2  7 30.0000000  0  9G29G05G20G13G23G15G24G18G30
 119221299.141 7  92899808.88946                  22687049.039    22687058.426
        44.900          40.200
 113380764.584 8  88348789.56147                  21575601.445    21575609.367
        48.000          44.100
 127018995.633 6  98975931.73142                  24170873.625    24170884.477
        37.100          16.300
 107793613.843 8  83995082.50346                  20512403.672    20512411.008
        50.200          39.300
 117924210.904 7  91889031.87245                  22440214.555    22440224.469
        45.100          31.300
 104509568.134 8  81436130.08548                  19887466.375    19887474.180
        52.100          52.400
 129206627.421 6 100680606.01044                  24587202.734    24587217.809
        37.200          29.200
 110674514.382 8  86239939.73446                  21060635.805    21060644.020
        49.600          39.800
 128901969.451 6 100443215.84744                  24529224.625    24529233.895
        38.300          28.500
 25  3 19  2  8  0.0000000  0  9G29G05G20G13G23G15G24G18G30
 119312938.393 7  92971216.01746                  22704487.164    22704496.961
        44.500          40.000
 113446556.751 7  88400056.16347                  21588120.852    21588129.477
        47.900          44.000
 127107133.027 6  99044610.13142                  24187647.070    24187655.637
        36.400          16.300
 107835567.242 8  84027773.48746                  20520387.313    20520394.355
        50.200          38.900
 117849467.132 7  91830790.13445                  22425991.531    22426000.977
        44.700          31.000
 104478535.845 8  81411949.12848                  19881561.156    19881568.785
        51.700          52.500
 129091355.638 5 100590784.12644                  24565265.344    24565281.941
        35.500          27.400
 110619998.879 8  86197460.20546                  21050261.344    21050269.852
        49.900          40.400
 128941934.013 6 100474357.15945                  24536828.914    24536839.414
        38.800          30.500
 25  3 19  2  8 30.0000000  0  9G29G05G20G13G23G15G24G18G30
 119404896.513 7  93042871.61846                  22721986.445    22721995.891
        44.200          39.800
 113512572.831 8  88451497.24747                  21600683.789    21600692.297
        48.200          44.300
 127195351.641 5  99113351.78542                  24204434.609    24204444.289
        35.400          17.400
 107878091.236 8  84060909.08746                  20528479.297    20528486.809
        51.000          39.100
 117774873.955 7  91772665.81045                  22411797.172    22411806.676
        45.000          31.400
 104448073.738 8  81388212.45548                  19875764.617    19875772.246
        51.600          52.900
 128976078.022 5 100500957.65344                  24543327.289    24543345.000
        33.400          27.000
 110565891.623 8  86155298.78946                  21039964.328    21039973.422
        49.700          39.800
 128982382.234 6 100505875.39545                  24544526.078    24544536.813
        39.800          30.400
 25  3 19  2  9  0.0000000  0  9G29G05G20G13G23G15G24G18G30
 119497170.607 7  93114773.40946                  22739545.773    22739555.629
        44.600          39.800
 113578812.079 8  88503112.22747                  21613288.359    21613296.750
        48.000          44.300
 127283650.593 5  99182156.03742                  24221237.727    24221246.820
        35.900          16.900
 107921183.351 8  84094487.36946                  20536679.750    20536687.027
        50.100          38.900
 117700431.574 7  91714658.91945                  22397631.445    22397640.305
        46.100          32.000
 104418181.836 8  81364920.05948                  19870076.453    19870083.613
        52.200          52.700
 128860797.589 5 100411128.99544                  24521391.828    24521408.777
        34.400          27.500
 110512194.784 8  86113457.13246                  21029746.805    21029755.430
        49.800          40.400
 129023312.864 6 100537769.52244                  24552314.938    24552324.969
        38.600          29.600
 25  3 19  2  9 30.0000000  0  9G29G05G20G13G23G15G24G18G30
 119589757.744 7  93186919.12546                  22757164.180    22757174.387
        43.500          39.900
 113645273.305 8  88554900.16847                  21625935.430    21625944.055
        48.000          44.200
 127372029.774 5  99251022.79942                  24238055.305    24238065.219
        34.700          16.300
 107964841.958 8  84128507.08746                  20544987.555    20544994.832
        49.700          38.900
 117626140.799 7  91656770.09145                  22383494.461    22383503.203
        45.500          32.400
 104388861.392 8  81342072.99548                  19864496.883    19864503.867
        51.600          52.400
 128745517.603 5 100321300.69944                  24499453.695    24499471.348
        33.200          27.200
 110458910.674 8  86071937.01546                  21019607.031    21019615.480
        50.200          40.100
 129064724.990 6 100570038.83644                  24560194.422    24560204.863
        36.900          26.900
 25  3 19  2 10  0.0000000  0  9G29G05G20G13G23G15G24G18G30
 119682654.957 7  93259306.47946                  22774841.922    22774852.188
        43.700          39.200
 113711956.746 7  88606861.25447                  21638626.164    21638633.383
        47.900          44.700
 127460488.958 5  99319951.90742                  24254889.695    24254898.320
        35.300          14.800
 108009066.133 8  84162967.48446                  20553403.234    20553410.453
        50.000          38.800
 117552002.694 7  91599000.30745                  22369386.102    22369395.137
        45.400          31.200
 104360113.302 8  81319672.07348                  19859025.578    19859033.324
        51.400          51.800
 128630241.294 5 100231475.27344                  24477517.195    24477534.438
        32.900          26.700
 110406041.838 8  86030740.49946                  21009546.672    21009554.652
        50.200          40.700
 129106617.735 6 100602682.58644                  24568165.367    24568175.984
        36.400          26.700
 25  3 19  2 10 30.0000000  0  9G29G05G20G13G23G15G24G18G30
 119775859.191 7  93331933.06246                  22792578.078    22792588.402
        44.500          39.300
 113778860.775 7  88658994.24447                  21651356.539    21651365.047
        47.500          44.600
 127549027.285 6  99388942.66442                  24271737.789    24271746.355
        37.100          16.900
 108053852.500 8  84197865.97046                  20561925.773    20561933.051
        50.200          39.200
 117478016.931 7  91541349.13545                  22355306.695    22355316.258
        45.100          33.100
 104331936.303 8  81297715.90048                  19853663.813    19853671.500
        52.000          52.500
 128514971.072 5 100141654.57444                  24455582.727    24455599.207
        32.400          26.800
 110353589.695 8  85989868.66246                  20999565.273    20999573.078
        49.900          39.400
 129148989.188 6 100635699.37644                  24576229.836    24576238.930
        38.100          27.500
 25  3 19  2 11  0.0000000  0  9G29G05G20G13G23G15G24G18G30
 119869366.952 7  93404796.15046                  22810371.656    22810382.801
        43.800          40.100
 113845984.927 8  88711298.76247                  21664130.547    21664138.469
        48.300          44.700
 127637644.402 6  99457994.83442                  24288601.461    24288609.617
        36.800          15.600
 108099199.377 8  84233201.20846                  20570555.039    20570562.258
        50.100          39.200
 117404184.827 7  91483817.69645                  22341257.250    22341266.402
        46.100          32.400
 104304332.210 8  81276206.37448                  19848410.930    19848418.617
        52.100          52.500
 128399710.643 5 100051841.48844                  24433647.977    24433664.809
        33.000          25.700
 110301557.315 8  85949324.01546                  20989663.891    20989671.988
        49.400          40.000
 129191838.929 6 100669088.85044                  24584384.453    24584393.664
        36.700          27.100
 25  3 19  2 11 30.0000000  0  9G29G05G20G13G23G15G24G18G30
 119963175.087 7  93477893.31446                  22828223.859    22828233.949
        44.100          39.800
 113913328.001 7  88763773.85947                  21676944.938    21676953.973
        47.000          44.200
 127726339.805 6  99527107.99242                  24305480.047    24305488.379
        37.300          14.800
 108145104.715 8  84268971.62446                  20579290.148    20579297.777
        49.800          38.600
 117330506.416 7  91426406.09245                  22327236.297    22327245.625
        46.300          33.600
 104277299.760 8  81255142.28948                  19843266.727    19843273.770
        51.500          52.400
 128284462.78615                                  24411714.781
        31.500
 110249945.851 8  85909107.33046                  20979842.680    20979850.660
        49.700          41.100
 129235164.899 5 100702849.37344                  24592628.813    24592637.320
        34.200          24.900
 25  3 19  2 12  0.0000000  0  9G29G05G20G13G23G15G24G18G30
 120057280.580 7  93551222.17946                  22846131.531    22846142.148
        44.900          39.800
 113980889.148 7  88816418.88647                  21689801.500    21689809.363
        47.200          44.400
 127815113.200 6  99596282.01842                  24322373.164    24322381.086
        37.000          14.800
 108191566.808 8  84305175.86746                  20588131.477    20588139.281
        49.600          38.700
 117256982.269 7  91369114.66045                  22313244.742    22313254.305
        46.400          33.200
 104250839.718 8  81234524.15148                  19838231.734    19838238.660
        52.300          52.000
 128169229.15515  99872245.95154                  24389786.813    24389804.289
        31.200          24.600
 110198757.643 8  85869220.46046                  20970101.500    20970110.066
        49.800          41.100
 129278966.286 5 100736980.42444                  24600963.320    24600972.473
        33.400          24.600
 25  3 19  2 12 30.0000000  0  9G29G05G20G13G23G15G24G18G30
 120151680.592 7  93624780.54246                  22864094.727    22864105.520
        44.900          38.700
 114048667.912 7  88869233.48247                  21702699.266    21702707.656
        46.300          44.600
 127903963.882 6  99665516.17642                  24339279.953    24339288.871
        36.100          13.900
 108238582.073 8  84341811.13846                  20597078.406    20597085.625
        50.000          38.600
 117183613.160 7  91311944.06345                  22299282.836    22299291.754
        46.500          32.800
 104224952.857 8  81214352.77948                  19833305.648    19833312.223
        52.000          52.800
 128054014.46615  99782468.49754                  24367861.656    24367879.660
        31.800          24.700
 110147994.951 8  85829665.17646                  20960441.922    20960450.020
        49.800          40.200
 129323241.554 5 100771480.66144                  24609387.195    24609398.750
        34.100          24.500
 25  3 19  2 13  0.0000000  0  9G29G05G20G13G23G15G24G18G30
 120246371.993 7  93698565.94846                  22882115.281    22882124.668
        45.300          39.600
 114116663.550 7  88922217.05347                  21715638.266    21715646.773
        46.500          44.600
 127992891.577 5  99734810.37052                  24356202.398    24356211.492
        35.100          15.600
 108286150.537 8  84378877.47946                  20606130.242    20606137.813
        49.200          38.100
 117110399.524 7  91254894.58345                  22285350.625    22285359.953
        46.900          33.700
 104199638.409 8  81194627.09448                  19828488.219    19828495.555
        51.300          53.000
 127938821.76815                                  24345940.156
        31.200
 110097659.620 8  85790442.77946                  20950863.484    20950871.758
        49.800          40.500
 129367989.675 5 100806349.33244                  24617902.898    24617914.102
        32.500          24.500
 25  3 19  2 13 30.0000000  0  9G29G05G20G13G23G15G24G18G30
 120341352.100 7  93772576.32946                  22900188.883    22900198.680
        44.300          39.100
 114184874.665 7  88975368.51947                  21728618.391    21728627.309
        45.500          44.700
 128081896.169 5  99804164.60442                  24373140.484    24373149.109
        35.400          14.800
 108334270.885 8  84416373.85546                  20615287.063    20615294.633
        49.100          37.700
 117037342.363 7  91197967.01945                  22271448.164    22271457.316
        47.000          33.500
 104174897.162 8  81175347.96348                  19823780.727    19823787.828
        51.900          52.900
 127823653.08315  99602966.57854                  24324026.266    24324043.684
        31.000          24.300
 110047754.416 8  85751555.58846                  20941366.750    20941374.848
        49.700          41.700
 129413209.624 5 100841585.63244                  24626508.500    24626519.176
        35.800          25.300
 25  3 19  2 14  0.0000000  0  9G29G05G20G13G23G15G24G18G30
 120436616.856 7  93846808.51846                  22918317.617    22918326.711
        43.900          39.800
 114253301.265 7  89028687.89747                  21741639.445    21741648.305
        45.800          44.100
 128170976.114 5  99873577.48642                  24390092.898    24390101.582
        35.800          16.300
 108382936.227 8  84454294.88946                  20624548.492    20624555.125
        50.100          37.700
 116964441.202 7  91141160.99745                  22257575.672    22257584.941
        45.500          32.700
 104150729.195 8  81156515.81348                  19819181.102    19819189.023
        51.300          52.900
 127708512.22415                                  24302116.453
        31.500
 109998280.683 8  85713004.78946                  20931952.164    20931959.910
        49.600          40.900
 129458899.256 5 100877187.95643                  24635201.453    24635213.301
        34.700          23.500
 25  3 19  2 14 30.0000000  0  9G29G05G20G13G23G15G24G18G30
 120532163.568 7  93921260.40046                  22936499.547    22936508.992
        43.400          39.000
 114321943.119 7  89082175.00447                  21754701.945    21754710.570
        45.800          44.400
 128260131.747 5                                  24407055.750
        33.400
 108432148.004 8  84492641.71246                  20633912.680    20633920.074
        49.600          38.400
 116891697.781 7  91084477.95045                  22243733.406    22243742.148
        46.400          33.000
 104127134.832 8  81138130.50348                  19814691.148    19814698.660
        51.900          52.900
 127593401.46615  99423550.19053                  24280209.391    24280227.160
        31.300          23.500
 109949240.846 8  85674791.93146                  20922620.117    20922627.980
        49.300          40.300
 129505058.088 5 100913155.93544                  24643987.086    24643997.938
        33.200          25.500
 25  3 19  2 15  0.0000000  0  9G29G05G20G13G23G15G24G18G30
 120627989.572 7  93995929.92346                  22954733.711    22954744.152
        43.100          38.500
 114390798.523 7  89135828.51247                  21767804.523    21767813.207
        46.300          44.100
 128349362.929 5                                  24424037.508
        34.200
 108481905.837 8  84531414.05346                  20643381.477    20643388.051
        49.600          37.500
 116819112.397 7  91027918.04145                  22229920.820    22229929.797
        46.200          34.300
 104104114.511 8  81120192.61948                  19810310.930    19810318.500
        51.300          52.800
 127478325.097 5  99333880.49944                  24258310.320    24258328.207
        31.300          25.300
 109900637.042 8  85636918.78346                  20913371.109    20913379.441
        49.700          41.000
 129551684.864 5 100949488.62544                  24652858.109    24652869.605
        34.300          26.100
 25  3 19  2 15 30.0000000  0  9G29G05G20G13G23G15G24G18G30
 120724091.595 7  94070814.51846                  22973021.773    22973032.566
        42.500          38.900
 114459866.846 7  89189647.95247                  21780948.313    21780956.410
        47.000          44.800
 128438668.905 5                                  24441032.180
        33.800
 108532203.769 8  84570607.23446                  20652952.688    20652960.141
        49.200          37.800
 116746685.702 7  90971481.79345                  22216137.727    22216147.523
        46.800          33.600
 104081668.430 8  81102702.32048                  19806039.516    19806046.910
        50.700          52.600
 127363285.75615  99244239.69354                  24236419.102    24236437.164
        31.500          25.900
 109852471.646 8  85599387.35746                  20904205.555    20904213.418
        49.400          40.800
 129598777.804 5 100986184.41444                  24661820.023    24661831.461
        35.000          27.000
 25  3 19  2 16  0.0000000  0  9G29G05G20G13G23G15G24G18G30
 120820465.281 6  94145910.80546                  22991359.875    22991371.664
        41.200          38.500
 114529146.477 7  89243632.04447                  21794131.781    21794139.586
        47.600          44.900
 128528048.155 5                                  24458040.742
        34.200
 108583040.228 8  84610220.04946                  20662626.539    20662633.875
        49.500          37.900
 116674416.824 7  90915168.44745                  22202385.914    22202394.715
        45.500          32.400
 104059794.716 8  81085657.86348                  19801876.711    19801884.574
        51.300          53.200
 127248285.325 5  99154629.19344                  24214536.125    24214551.902
        32.800          25.700
 109804745.410 7  85562198.16346                  20895123.414    20895131.336
        47.800          39.900
 129646334.570 5 101023241.73644                  24670870.430    24670881.047
        33.500          26.200
 25  3 19  2 16 30.0000000  0  9G29G05G20G13G23G15G24G18G30
 120917108.559 7  94221217.15846                  23009751.391    23009762.301
        42.400          38.500
 114598638.027 7  89297781.27647                  21807355.492    21807363.355
        47.500          44.800
 128617501.237 5                                  24475063.477
        33.800
 108634415.062 8  84650252.38346                  20672402.781    20672410.117
        50.200          38.000
 116602307.661 7  90858979.60745                  22188663.836    22188672.695
        46.400          33.000
 104038494.993 8  81069060.74248                  19797823.664    19797831.293
        51.700          53.000
 127133327.899 5  99065052.20244                  24192661.617    24192676.750
        33.700          25.200
 109757461.296 8  85525353.47746                  20886125.461    20886133.793
        50.200          41.300
 129694354.682 5 101060660.04744                  24680007.547    24680018.164
        33.600          25.600
